1060,1070,1080,1090,1100,1110,1120,1130,1140,1150,1160,1170,1180,1190,1200,1210,1220,1230,1240,1250,Department,Latitude,Longitude,Monument,Priority,Region,id,name
,,,,,,,,,,,,,,,,,,,,Somme,49.821,2.9581,Sainte-Benoîte,4,Outliers,Synopsis.php?id=FALVY,Falvy 
,,,,,,,,,,88.0,,,55.0,,,,,,,Oise,49.284,1.8229,Sainte-Marie-Madeleine,1,Beauvaisis,Synopsis.php?id=TRIE-C,Trie-Chateau 
,,,,,,,,,,,,,,,,,,,,Marne,48.948,3.6194,Saint-Malo,4,Marne,Synopsis.php?id=VERDON,Verdon 
,,,,,,,,,,,,,,,,,,,,Eure-et-Loir,48.353,1.9100,Saint-Pierre,4,Perche,Synopsis.php?id=ARDELU,Ardelu 
,,,,,,,,,,,,,,,,,,,,Eure-et-Loir,48.091,1.4909,Saint-Martin,4,Perche,Synopsis.php?id=CIVRY,Civry 
,,,,,,,,,,,,,,,,,,,,Yonne,48.157,3.2351,Saint-Martin,4,Yonne,Synopsis.php?id=COLLEMIE,Collemiers 
,,,,,,,,,,,,,,,80.0,,,,,Val-de-Marne,48.794,2.5304,Saint-Pierre,2,Parisis,Synopsis.php?id=CHENNEVI,Chennevieres-sur-Marne 
,,,,,,,36.0,,,,,,,,,,,,,Oise,49.288,1.8351,Notre-Dame-de-l'Assomption,3,Beauvaisis,Synopsis.php?id=TRIE-V,Trie-la-Ville 
,,,,,,,,,,,,,,,,,,,,Oise,49.403,2.3264,La Nativité,4,Beauvaisis,Synopsis.php?id=NEUVIL-H,"Neuville-en-Hez, La "
,,,,,,,,,,,,,,,,,,,,Val-d'Oise,49.119,2.0014,Notre-Dame-de-l'Assomption,4,Vexin,Synopsis.php?id=FREMECOU,Fremecourt 
,,,,,,,,,,,,60.0,77.0,,,,,,,Seine-et-Marne,48.550,3.0659,Saint-Éliphe,2,Provinois,Synopsis.php?id=RAMPILLO,Rampillon 
,,,,,,,,,,,,,22.0,,,28.0,40.0,,,Val-d'Oise,49.084,2.0055,Notre-Dame-de-l'Assomption,3,Vexin,Synopsis.php?id=MONTGERO,Montgeroult 
,,,,,,,,,,,,,,,,,,,,Loiret,48.238,2.2460,Saint-Denis,4,Gâtinais,Synopsis.php?id=ENGENVIL,Engenville 
,,,,,,,,,,,,,,,,,,,,Seine-et-Marne,48.785,2.5402,Notre-Dame-de-l'Assomption,4,Parisis,Synopsis.php?id=ORMESSON,Ormesson-sur-Marne 
,,,,,,,,,,,,,,,,,,,,Seine-et-Marne,48.459,2.8001,Saint-Osmane,4,Provinois,Synopsis.php?id=FERICY,Fericy 
,,,,,,,,,,,,,,,,,,,,Essonne,48.438,2.3564,Saint-Martin,4,Parisis,Synopsis.php?id=VAYRES-E,Vayres-sur-Essonne 
,,,,,,,,,,,,,,,,,,,,Aisne,49.415,3.2432,La Nativité,4,Soissonais,Synopsis.php?id=CUISY-A,Cuisy-en-Almont 
,,,,,,,,,,,,,,,,,,,,Oise,49.328,2.0046,Saint-Nicolas de Marcheroux Grange,4,Beauvaisis,Synopsis.php?id=BEAUMT-N,Beaumont-les-Nonains 
,,,,,,,,,,45.0,,83.0,64.0,42.0,66.0,98.0,,,,Val-d'Oise,49.145,2.2876,Saint-Laurent,1,Therain,Synopsis.php?id=BEAUMT-O,Beaumont-sur-Oise 
,,,,,,,,,,,,,,,,35.0,19.0,34.0,,Loiret,48.136,2.4746,Saint-Barthélémy,2,Gâtinais,Synopsis.php?id=BEAUMT-G,Beaumont-du-Gatinais 
,,9.0,23.0,,,,92.0,80.0,,,,14.0,,,,,,,,Oise,49.103,2.9542,Saints-Pierre-et-Paul,2,Soissonais,Synopsis.php?id=ACY-M,Acy-en-Multien 
,,,,,,,,,,,,,,,,,,,,Marne,48.894,3.9128,Saint-Laurent,4,Marne,Synopsis.php?id=GIVRY-L,Givry-les-Loisy 
,,,,,,,,,70.0,35.0,,36.0,,,,,30.0,,,Seine-et-Marne,48.181,2.7313,Saint-Clair,3,Gâtinais,Synopsis.php?id=SOUPPES,Souppes-sur-Loing 
,,,,,,,,,,,,,,,,,,,,Eure-et-Loir,48.795,1.4980,Sainte-Vierge,4,Perche,Synopsis.php?id=BU,Bu 
,,,,,,,,,,,,,,,,,,,,Oise,49.520,2.6061,Saint-Léonard,4,Noyonnais,Synopsis.php?id=MENEVILL,Menevillers 
,,,,,,,25.0,,,,,,90.0,22.0,,,35.0,,,Val-d'Oise,49.057,2.0183,Notre-Dame,4,Vexin,Synopsis.php?id=PUISEU-P,Puiseux-Pontoise 
,,,,,,20.0,71.0,72.0,,,,,,,,,,,,Eure,49.024,1.1510,Notre-Dame,2,Outliers,Synopsis.php?id=EVREUX,Evreux 
,,,,,,,,,,,,,,,,,,,,Aisne,49.297,3.1298,Saint-Pierre,4,Soissonais,Synopsis.php?id=PUISEU-R,Puiseux-en-Retz 
,,,,,,,,,,,,,,,,,,,,Yvelines,48.834,2.0416,Chapelle Saint-Nicolas,4,Parisis,Synopsis.php?id=RENNEMOU,Rennemoulin 
,,,,,,,,16.0,15.0,12.0,,80.0,45.0,,,,,,,Marne,48.994,3.9635,Saint-Nicaise,2,Châlonais,Synopsis.php?id=CUIS,Cuis 
,,,,,,,,,,,,,,,,,,,,Oise,49.426,2.1935,Saint-Laurent,4,Beauvaisis,Synopsis.php?id=LAVERSIN,Laversines 
,,,,,,,,,,,,,,,,,,,,Essonne,48.685,2.3493,Saint-Martin,4,Parisis,Synopsis.php?id=SAVIGN-O,Savigny-sur-Orge 
,,,,,,,,,,,,,,,,,,,,Aisne,49.394,3.6308,Saint-Jean-Baptiste,4,Soissonais,Synopsis.php?id=PONT-A,Pont-Arcy 
,,,,,,,,,,,,,,,,,,,,Seine-Maritime,49.545,0.1928,Saint-Joseph,4,Outliers,Synopsis.php?id=MONTIVIL,Montivilliers 
,,,,,,,30.0,,,38.0,,,,,,,,,,Seine-et-Marne,48.371,2.8220,Saint-Loup,3,Provinois,Synopsis.php?id=PONT-L,Pont-Loup 
,,,,,,,,,,,,,,,,,,,,Marne,49.244,3.7815,Saint-Martin,4,Reimois,Synopsis.php?id=SAVIGN-A,Savigny-sur-Ardres 
,,,,,,,,,,,,,,,,,,,,Seine-et-Marne,48.393,2.8250,Saint-Pierre,4,Provinois,Synopsis.php?id=CELLE-S,"Celle-sur-Seine, La "
,,,,,,,,,,,,,,,,,,,,Yonne,48.183,3.4440,La Nativité,4,Yonne,Synopsis.php?id=PONT-V,Pont-sur-Vanne 
,,,,,,,,,22.0,280.0,200.0,280.0,180.0,90.0,200.0,180.0,,24.0,,Yvelines,48.990,1.7202,Notre-Dame,1,Meulanois,Synopsis.php?id=MANTES-J,Mantes-la-Jolie 
,,,,,,,,,,,,,,,,,,,,Seine-et-Marne,48.298,2.9393,Saint-Pierre,4,Yonne,Synopsis.php?id=THOURY-F,Thoury-Ferottes 
,,,,,,,,,,,,,,,,16.0,35.0,,,Seine-et-Marne,48.599,2.5597,Saint-Germain-d'Auxerre,3,Parisis,Synopsis.php?id=SAVIGN-T,Savigny-le-Temple 
,,,,,,,,,,,,,68.0,18.0,,,,,,Seine-et-Marne,48.669,3.2832,Saint-Martin,2,Brie,Synopsis.php?id=CHAMPCEN,Champcenest 
,,,,,,,,,,,,,,,,,,,,Marne,48.875,4.3098,Saint-Étienne,4,Châlonais,Synopsis.php?id=NUISEMEN,Nuisement-sur-Coole 
,,,,,,,,,,40.0,18.0,30.0,,,,,,,,Aisne,49.357,3.8375,Saints-Cyr-et-Julitte,3,Soissonais,Synopsis.php?id=GUYENCOU,Guyencourt 
,,,,,,,,,,,,,,,,,,,,Oise,49.197,2.2076,Saint-Denis,4,Therain,Synopsis.php?id=BORNEL,Bornel 
,,,,,,,,,,,,,,,,,,,,Aisne,49.738,3.7372,Saint-Médard,4,Laonnois,Synopsis.php?id=MARCY-M,Marcy-sous-Marle 
,,,,,,,,,,,,,,,,,,,,Seine-et-Marne,48.386,2.9583,Notre-Dame-et-Saint-Loup,4,Provinois,Synopsis.php?id=MONTEREA,Montereau-Faut-Yonne 
,,,,,,,,,,,22.0,,,,,,,,,Oise,49.319,2.5511,Notre-Dame-de-l'Assomption,2,Therain,Synopsis.php?id=MONCEAUX,Monceaux 
34.0,35.0,25.0,,,,,,,24.0,30.0,,,,,,25.0,12.0,18.0,,Aisne,49.168,3.3541,Notre-Dame-de-l'Assomption,2,Soissonais,Synopsis.php?id=CROIX-O,"Croix-sur-Ourcq, La "
,,,,,,,,20.0,,56.0,,25.0,56.0,,,,22.0,,,Aisne,49.223,3.4147,Saint-Pierre,3,Soissonais,Synopsis.php?id=BEUGNEUX,Beugneux 
,,,,,,,,,,280.0,100.0,200.0,140.0,300.0,240.0,163.0,,,,Oise,49.582,3.0007,La Nativité,1,Noyonnais,Synopsis.php?id=NOYON,Noyon 
,,,,,,,18.0,18.0,,,,,53.0,30.0,,55.0,,,,Seine-et-Marne,48.593,3.0762,Saint-Loup-de-Sens,2,Provinois,Synopsis.php?id=CROIX-B,"Croix-en-Brie, La "
,,,,,,,,,,,,,,,,,,,,Marne,48.952,3.7353,Saint-Remi,4,Marne,Synopsis.php?id=SUIZY-F,Suizy-le-Franc 
,,,,,,,,,,,,,101.0,68.0,91.0,,,,,Oise,49.189,2.4158,Sainte-Geneviève,2,Senlisis,Synopsis.php?id=GOUVIEUX,Gouvieux 
,,,,,,,,,,,,,,,,,,,,Marne,48.805,3.9112,Saint-Vaast,4,Châlonais,Synopsis.php?id=BANNES,Bannes 
,,,,,,,,,5.0,,,40.0,,,,,18.0,8.0,,Aisne,49.074,3.5060,Saint-Caprais,3,Marne,Synopsis.php?id=CHARTEVE,Charteves 
,,,,,,,,,,,,,,,,,,,,Eure-et-Loir,48.223,1.6390,Saint-Julien,4,Perche,Synopsis.php?id=FAINS-F,Fains-le-Folie 
,,,,,,,,,,,,,,,,,,160.0,,Seine-et-Marne,48.518,2.6321,Notre-Dame,3,Parisis,Synopsis.php?id=DAMMARIE,Dammarie-les-Lys 
,,,,,,,,,,,,,,,,,,,,Aisne,49.498,3.7913,Saint-Nicolas,4,Laonnois,Synopsis.php?id=AUBIGNY,Aubigny-en-Laonnois 
,,,,,,,,,,,,,,,,,,,,Oise,49.259,2.9686,Saint-Laurent,4,Soissonais,Synopsis.php?id=BEMONT,Bemont 
,,,,,,,,,45.0,15.0,,,,,,,,,,Marne,49.341,3.7985,Saint-Remi,2,Soissonais,Synopsis.php?id=VENTELAY,Ventelay 
,,,,,,,58.0,36.0,,,,,,,,,32.0,34.0,,Oise,49.262,2.0673,Saint-Crépin,2,Vexin,Synopsis.php?id=S-CREPIN,Saint-Crepin-Ibouvillers 
,,,,,,,,,,,,,,,,,,,,Yvelines,48.803,1.6693,Saint-Nicolas,4,Perche,Synopsis.php?id=BAZAINVI,Bazainville 
,,,,,,43.0,12.0,12.0,,30.0,,,36.0,,,,,,,Aisne,49.202,3.3898,Saints-Crépin-et-Crépinien,3,Soissonais,Synopsis.php?id=CUGNY-C,Cugny-les-Crouttes 
,,,,,,,38.0,14.0,,,,45.0,,,,,,,,Aisne,49.234,3.0422,Notre-Dame,3,Soissonais,Synopsis.php?id=COYOLLES,Coyolles 
,,,,,,,,,,,,,,,,,,,,Aisne,49.377,3.7881,Saints-Pierre-et-Paul,4,Soissonais,Synopsis.php?id=CONCEVRE,Concevreux 
,,,,,,,,,,,,,,,,,,,,Marne,49.717,4.7814,Saint-Remi,4,Outliers,Synopsis.php?id=SCRUPT,Scrupt 
,,,,,,,,,,,,48.0,18.0,,,,,,,Aisne,48.883,3.4851,Saint-Martin,2,Marne,Synopsis.php?id=MARCHAIS,Marchais-en-Brie 
,,,,,,,,,,,,,,,,,,,,Marne,49.276,3.8903,Saint-Symphorien,4,Reimois,Synopsis.php?id=MUIZON,Muizon 
,,,,,,,,,,,,,,,,,,,,Aisne,49.439,3.7885,Saint-Martin,4,Soissonais,Synopsis.php?id=CRAONNE,Craonne 
,,30.0,,,16.0,,,,,,,,,,,,,,,Oise,49.205,2.5820,Saint-Aignan,3,Senlisis,Synopsis.php?id=SENLIS-A,Senlis 
,,,,,,,,,,56.0,,16.0,,,,,,,,Aisne,49.184,3.3852,Saint-Martin,3,Soissonais,Synopsis.php?id=ARMENTIE,Armentieres-sur-Ourcq 
,,,,,,,,,,,,,,33.0,,,,,,Aisne,49.220,3.1368,Saint-Martin,3,Soissonais,Synopsis.php?id=OIGNY-V,Oigny-en-Valois 
,,,,,,,,,,,,,,,,,,,,Aisne,49.293,3.6403,Saint-Waast,4,Soissonais,Synopsis.php?id=VILLE-SV,Ville-Savoye 
,,,,50.0,,,,,,,,24.0,,,,,,,,Oise,49.237,2.6939,Saint-Georges,4,Senlisis,Synopsis.php?id=BRAY,Bray 
,,,,,,,,,,,,,,,,,,,,Essonne,48.520,2.2981,Saint-Pierre-ès-Liens,4,Parisis,Synopsis.php?id=BOURAY-J,Bouray-sur-Juine 
,,,,,,,,,,,,,,,,,,,,Seine-et-Marne,48.730,3.3408,Saint-Colombe,4,Brie,Synopsis.php?id=VIEUX-M,Vieux-Maisons 
,,,,,,,,,,,,,,,,,,,,Aisne,49.047,3.5104,Notre-Dame,4,Marne,Synopsis.php?id=CREZANCY,Crezancy 
,,,,,,,,,,,,,,,,,,,,Oise,49.479,2.2943,Saint-Martin,4,Beauvaisis,Synopsis.php?id=ESSUILES,Essuiles 
,,,30.0,,,150.0,18.0,,,34.0,,,,46.0,,,,,,Yvelines,48.955,1.8142,Saint-Béal,3,Meulanois,Synopsis.php?id=EPONE,Epone 
,,,,,,10.0,25.0,,,,,,,,,,,,,Aisne,49.401,3.2279,Saint-Martin,3,Soissonais,Synopsis.php?id=OSLY-C,Osly-Courtil 
,,,,,,,,,,37.0,,,,,,,,,,Aisne,49.091,3.2579,Saints-Crépin-et-Crépinien,2,Soissonais,Synopsis.php?id=BUSSIARE,Bussiares 
,,,,,52.0,,,,,,,,,,,,,,,Oise,49.447,2.4260,Saint-Lucien,2,Beauvaisis,Synopsis.php?id=AVRECHY,Avrechy 
,,,,,,,,,,,,,,,,,,,,Marne,48.555,4.5241,Saint-Christophe,4,Châlonais,Synopsis.php?id=MARGERIE,Margerie-Hancourt 
,,,,,,,,,,,,,,,,,,,,Yvelines,48.703,1.6176,Sainte-Madeleine,4,Perche,Synopsis.php?id=HAUTEV-L,"Hauteville, La "
,,,,,,25.0,36.0,,,,,,,,,,,,,Aisne,49.472,3.6115,La Trinité,3,Laonnois,Synopsis.php?id=TRUCY,Trucy 
,,,,,,,,,,56.0,,,,,,,,,,Oise,49.290,2.6896,Saint-Remi,3,Senlisis,Synopsis.php?id=ROBERVAL,Roberval 
,,,,,,,,,,80.0,85.0,28.0,,,,,,30.0,,Aisne,49.410,3.5176,Notre-Dame-de-l'Assomption,1,Soissonais,Synopsis.php?id=VAILLY-A,Vailly-sur-Aisne 
,,,,,,,,,,,,,,,,,,,,Val-d'Oise,49.056,2.5425,Saint-Germain,4,Senlisis,Synopsis.php?id=VILLERON,Villeron 
,,,,,,,,,,57.0,,,,,,,,,,Aisne,49.523,3.5395,Saints-Julien-et-Jean-Baptiste,3,Laonnois,Synopsis.php?id=ROYAUCOU,Royaucourt-et-Chailvet 
,,103.0,,,,,,,,50.0,,40.0,76.0,,,,,,,Aisne,48.987,3.6140,Saint-Barthélémy,3,Marne,Synopsis.php?id=BAULNE-B,Baulne-en-Brie 
,,,,,,,,,,,,,,,,,,,,Loiret,48.254,2.2715,Saint-Martin,4,Gâtinais,Synopsis.php?id=DOSSAINV,Dossainville 
,,,,,,,,,,,,,,60.0,50.0,80.0,30.0,22.0,,Yvelines,48.982,2.0027,Saint-Martin,2,Meulanois,Synopsis.php?id=TRIEL-S,Triel-sur-Seine 
,,,,,,,,,,,,,,,,,,,,Marne,49.109,4.7483,La Nativité,4,Outliers,Synopsis.php?id=HANS,Hans 
,,,,,,,,,,,,,,,,,,,,Marne,48.579,4.4980,Saint-Eusèbe,4,Châlonais,Synopsis.php?id=CHAPELAI,Chapelaine 
,32.0,,,,,,,,,,,140.0,200.0,80.0,,,50.0,80.0,,Eure-et-Loir,48.525,1.6881,Saint-Pierre,1,Perche,Synopsis.php?id=GALLARDO,Gallardon 
,,,,,,,,,,,,,,,,,,,,Sarthe,48.002,0.2002,Notre-Dame-de-Couture,2,Outliers,Synopsis.php?id=MANS-N,"Mans, Le "
,,,,,,,,,,14.0,,,16.0,,,,,,,Oise,49.421,2.1449,Saint-Ouen,3,Beauvaisis,Synopsis.php?id=THERDONN,Therdonne 
,,,,,,,,,40.0,40.0,22.0,,,,,,,,,Oise,49.129,3.0051,Saint-Étienne,2,Soissonais,Synopsis.php?id=BOULLARR,Boullarre 
,,,,,,,,,,,,,,,,,,,,Marne,49.052,3.7441,Saint-Laurent,4,Marne,Synopsis.php?id=FESTIGNY,Festigny 
,,,,,,,41.0,12.0,,20.0,,,22.0,,,29.0,,,,Aisne,49.299,3.5383,Saints-Pierre-et-Paul,2,Soissonais,Synopsis.php?id=JOUAIGNE,Jouaignes 
,,,,,,,,,,,28.0,,,,,,,,,Aisne,49.358,3.6531,Saint-Pierre,3,Soissonais,Synopsis.php?id=BARBONVA,Barbonval 
,,,,,,,,,,,,,,,,,,,,Oise,49.242,2.8010,Notre-Dame-de-l'Assomption,4,Senlisis,Synopsis.php?id=TRUMILLY,Trumilly 
,,,,,,,,,,,,,,,,,,,,Marne,49.282,3.7692,Saints-Rufin-et-Valère,4,Soissonais,Synopsis.php?id=HOURGES,Hourges 
,,,,,,,,,,,,,,,,,,,,Somme,49.854,2.9295,La Nativité,4,Outliers,Synopsis.php?id=BRIOST,Briost 
,,,,,,,,,,,,,,,,,,,,Seine-et-Marne,48.627,3.0204,Saint-Étienne,4,Provinois,Synopsis.php?id=GASTINS,Gastins 
,,,,,,54.0,,,36.0,80.0,,,,,,,,,,Val-d'Oise,49.127,2.2068,Saint-Denis,2,Vexin,Synopsis.php?id=JOUY-C,Jouy-le-Comte 
,,,,,,,,,,,,,,,50.0,,,,,Seine-et-Marne,48.647,3.2054,Notre-Dame,3,Provinois,Synopsis.php?id=JOUY-A,Jouy-lAbbaye 
,,,,,,,,,,,,,,,41.0,16.0,,,,Seine-et-Marne,48.420,3.0215,Saint-Apollinaire,3,Provinois,Synopsis.php?id=SALINS,Salins 
,,,,,,,,,,,,,,,20.0,,,,,Yvelines,48.763,2.1681,Saint-Martin,3,Parisis,Synopsis.php?id=JOUY-J,Jouy-en-Josas 
,,,,,,,,,58.0,30.0,,,,,,45.0,,,,Aisne,49.104,3.4460,Saint-Médard,2,Soissonais,Synopsis.php?id=EPIEDS,Epieds 
,,,,,,58.0,,20.0,,,,,,,,,,,,Loiret,48.173,2.2553,Saint-Salomon-et-Grégoire,2,Gâtinais,Synopsis.php?id=PITHIV-S,Pithiviers 
,,,,,,,,,,,,,,,,,,,,Loiret,48.142,2.1126,Saint-André,4,Gâtinais,Synopsis.php?id=JOUY-P,Jouy-en-Pithiverais 
,,,,,,,,,,,,,,,,,,,,Val-d'Oise,48.987,2.3438,Saint-Martin,4,Parisis,Synopsis.php?id=GROSLAY,Groslay 
,,,,,,,,,,,,,,,,,,,,Yonne,48.305,3.0501,Saint-Agnan,4,Yonne,Synopsis.php?id=S-AGNN-Y,Saint-Agnan 
,30.0,,,20.0,22.0,,,,20.0,28.0,,45.0,,,,,,,,Aisne,49.502,3.6106,Saint-Martin,1,Laonnois,Synopsis.php?id=NOUVION,Nouvion-le-Vineux 
,,,,,,,,,,,,,,,,48.0,183.0,,,Marne,49.253,4.0349,Bishop's Chapel,2,Reimois,Synopsis.php?id=REIMS-EV,Reims 
,,,,,,,12.0,16.0,66.0,15.0,,,46.0,,26.0,,24.0,,,Oise,49.340,2.4976,Saints-Côme-et-Damien,3,Therain,Synopsis.php?id=ROSOY,Rosoy 
,,,,,,,,,,,,,,,,,,,,Aisne,49.447,3.4277,Notre-Dame-de-l'Assomption,4,Soissonais,Synopsis.php?id=LAFFAUX,Laffaux 
,,,,,,,,,,22.0,,,32.0,,,,,,,Marne,48.802,4.5020,Saint-Maurice,3,Châlonais,Synopsis.php?id=SONGY,Songy 
,,,,,,,,,30.0,30.0,,,,,,,21.0,,,Aisne,49.020,3.5950,Saint-Agnan,2,Marne,Synopsis.php?id=S-AGNN-A,Saint-Agnan 
,,,,,,22.0,95.0,40.0,40.0,22.0,,30.0,,,,,,,,Marne,48.906,4.0013,Saint-Martin,2,Châlonais,Synopsis.php?id=VERTUS,Vertus 
,,,,,,,39.0,,,,16.0,,,,,,,,,Oise,49.255,2.4008,Saint-Martin,3,Therain,Synopsis.php?id=CRAMOISY,Cramoisy 
,,,,30.0,10.0,30.0,,,,,,,,45.0,36.0,54.0,48.0,23.0,,Oise,49.313,2.3440,Saint-Lucien,1,Therain,Synopsis.php?id=BURY,Bury 
,,,,,,,,20.0,80.0,85.0,,77.0,220.0,160.0,82.0,,,,,Somme,49.749,3.0720,Notre-Dame-de-l'Assomption,2,Noyonnais,Synopsis.php?id=HAM,Ham 
,,,,,,,,,,,,,,,,,,,,Aisne,49.425,3.3050,Saint-Marcel,4,Soissonais,Synopsis.php?id=CHAVIGNY,Chavigny 
,,,,,,,,,,,,,,40.0,,,,,,Essonne,48.433,2.4574,Saint-Denis,2,Gâtinais,Synopsis.php?id=MOIGNY-E,Moigny-sur-Ecole 
,,,,,,,,21.0,,16.0,28.0,127.0,,24.0,,,,,,Aisne,49.339,3.4904,Saint-Lubin,2,Soissonais,Synopsis.php?id=COUVRELL,Couvrelles 
,,,,,,,,,,,,,,,,,,,,Aisne,49.111,3.1033,Saint-Martin,4,Soissonais,Synopsis.php?id=MONTI-AL,Montigny-lAllier 
,,,,,,,,,,,,,,,,,,,,Marne,48.912,4.5265,Saint-Nicolas,4,Châlonais,Synopsis.php?id=MARSON,Marson 
,,,,,,,,,,,,,,,,,,,,Aisne,49.479,3.5220,Saint-Remi,4,Laonnois,Synopsis.php?id=CHAVIGNO,Chavignon 
,,,,,,,,,,,,,,,,,,,,Marne,48.807,4.6086,Saint-Amand,4,Outliers,Synopsis.php?id=S-AMND-F,Saint-Amand-sur-Fion 
,,,,,,,,,,,,,,,,,,,,Seine-et-Marne,48.496,2.5483,Saint-Eutrope,4,Parisis,Synopsis.php?id=S-SAUV-E,Saint-Sauveur-sur-Ecole 
,,,,,,,,,,,,24.0,,,,,,,,Seine-et-Marne,48.415,3.2369,Sainte-Croix,4,Yonne,Synopsis.php?id=BRAY-S,Bray-sur-Seine 
,,,,,,,,,,,,,,,,,,,,Essonne,48.645,2.4514,Notre-Dame-de-l'Assomption,4,Parisis,Synopsis.php?id=SOISY-S,Soisy-sur-Seine 
,,,,,,,,,,22.0,,,,,,,,,,Aisne,49.649,3.3078,Saint-Remi,3,Laonnois,Synopsis.php?id=FONTENOY,Fontenoy 
,,,,,,,,,,,,,,,,,,,,Eure-et-Loir,48.208,1.2858,Saint-Pierre,4,Perche,Synopsis.php?id=DANGEAU,Dangeau 
,,,,,,,,,,,,,,,,,,,,Essonne,48.474,2.4969,Saint-Aignan,4,Gâtinais,Synopsis.php?id=SOISY-E,Soisy-sur-Ecole 
,59.0,,,,148.0,,,,,,,,,,,,,,,Eure-et-Loir,48.437,1.4940,Saint-Hilaire,2,Perche,Synopsis.php?id=S-MTN-VH,Saint-Martin-du-Val 
,,,,,,,,,,,,,,80.0,43.0,,,,,Essonne,48.551,2.3661,Saint-Martin,3,Parisis,Synopsis.php?id=VERT-PET,Vert-le-Petit 
,,,,,,,,,,,,,,,,,,,,Marne,49.157,3.9135,Saint-Remi,4,Reimois,Synopsis.php?id=POURCY,Pourcy 
,,,,,,,,,,10.0,,48.0,20.0,,18.0,,,,,Val-d'Oise,48.987,2.1602,Saint-Martin,2,Parisis,Synopsis.php?id=HERBLAY,Herblay 
,,,,,,,,,,,,,,,,,,,,Marne,49.091,4.2252,Saint-Hippolyte,4,Châlonais,Synopsis.php?id=VAUDEMAN,Vaudemange 
,,,,,,,,,,,,,,,,,,,,Oise,49.330,2.4981,Saint-Hilaire,4,Therain,Synopsis.php?id=VERDERON,Verderonne 
,,,28.0,,,,22.0,13.0,,110.0,,,,15.0,,,,,,Yvelines,48.980,1.9759,Saint-Martin,2,Meulanois,Synopsis.php?id=VERN-S-N,Verneuil-sur-Seine 
,,,,,,,,,,,,,,,19.0,,,,,Seine-et-Marne,48.410,3.3538,Saint-Martin,3,Provinois,Synopsis.php?id=VILLUIS,Villuis 
,,,,,,,,,,10.0,,,,,,,,,,Marne,49.141,3.7349,Saint-Symphorien,3,Soissonais,Synopsis.php?id=ANTHENAY,Anthenay 
,,,,,,,,,,,,,,,,,,,,Aisne,49.651,3.6728,Saint-Remi,4,Laonnois,Synopsis.php?id=VERN-S-R,Verneuil-sur-Serre 
,,,,,,,,,,,40.0,,,,,,,,,Seine-et-Marne,48.561,3.3025,Notre-Dame,2,Provinois,Synopsis.php?id=PROVI-ND,Provins 
,,,,,,,,,,60.0,60.0,60.0,,,,,,,,Seine-et-Marne,48.617,3.3345,Notre-Dame-de-l'Assomption,1,Provinois,Synopsis.php?id=VOULTON,Voulton 
,,,,,,,,,,,,,,,,,,,,Oise,49.211,2.7449,Saint-Maurice,4,Senlisis,Synopsis.php?id=DUCY,Ducy 
,,,,,,,,,,24.0,,,,,56.0,16.0,,,,Essonne,48.530,2.4433,Saint-Sulpice,2,Parisis,Synopsis.php?id=CHEVANNE,Chevannes 
,,,,,,,,,,25.0,30.0,40.0,,,,,,,,Aisne,49.355,3.7139,Saint-Georges,1,Soissonais,Synopsis.php?id=GLENNES,Glennes 
,,,,,,,,,,,,,,,,,,,,Aisne,49.390,3.4140,Saint-Marguérite,4,Soissonais,Synopsis.php?id=BUCY-L,Bucy-le-Long 
,,,,,,,,,,,,,,,,,,,,Aisne,49.325,3.6549,Notre-Dame-de-l'Assomption,4,Soissonais,Synopsis.php?id=PERLES,Perles 
,,,,,,,,,,,,,,,,,,,,Oise,49.243,1.8470,Saint-Martin,4,Beauvaisis,Synopsis.php?id=REILLY,Reilly 
,,,,,32.0,76.0,,208.0,,,,,,,,,,,,Marne,49.017,4.1277,Saint-Remi,3,Châlonais,Synopsis.php?id=ATHIS,Athis 
,,,,,,,,,,,,,,,,24.0,,,,Seine-et-Marne,49.064,2.6041,Saint-Opportune,3,Senlisis,Synopsis.php?id=MOUSSY-N,Moussy-le-Neuf 
,,,,,,,,,,70.0,,,,,50.0,,,,,Oise,49.320,2.3204,Saint-Léger,2,Therain,Synopsis.php?id=MOUY,Mouy 
,,,,,,,,,,,,,,,,,,,,Oise,49.187,1.8528,Saint-Martin,4,Vexin,Synopsis.php?id=HADANCOU,Hadancourt-le-Haut-Cloche 
,,,,,,,,,,,,,,,,,,,,Aisne,49.120,3.2184,Saint-Gengoulph,4,Soissonais,Synopsis.php?id=S-GENGOU,Saint-Gengoulph 
,,,,,,,,,,,,,,,,,,,,Aisne,49.416,3.6380,Saint-Jean-Baptiste,4,Soissonais,Synopsis.php?id=MOUSSY-V,Moussy-Verneuil 
,,,,,,,,,,,,,,,,,,,,Aisne,49.145,3.1988,Saint-Médard,4,Soissonais,Synopsis.php?id=DAMMARD,Dammard 
,,,,,,,,20.0,,32.0,14.0,,,,,,,,,Oise,49.380,2.1916,Notre-Dame-de-l'Assomption,3,Beauvaisis,Synopsis.php?id=MONTR-T,Montreuil-sur-Therain 
,,,,,,,,,,,,,,12.0,15.0,,,,,Oise,49.101,3.0439,La Nativité,3,Soissonais,Synopsis.php?id=VARINFRO,Varinfroy 
,,,,,,,,,,,,,,,,,,,,Aisne,49.528,3.3808,Saints-Pierre-et-Paul,4,Laonnois,Synopsis.php?id=BASSOLES,Bassoles-Aulers 
,,,,,,,,,,,,,,,58.0,,,,,Val-d'Oise,49.177,1.6780,Saint-Denis,3,Beauvaisis,Synopsis.php?id=MONTR-E,Montreuil-sur-Epte 
,,,,,,,,,,,,,,,,,,,,Seine-et-Marne,48.458,2.5381,Saint-Étienne,4,Gâtinais,Synopsis.php?id=CELY,Cely 
,,,,,,,,,,,,,,,,,,,,Oise,49.171,3.1026,Clos du Reveil,4,Soissonais,Synopsis.php?id=MAROLL-P,Marolles-Preciamont 
,,,,,,,,,,,,,,,,,,,,Aisne,49.395,3.4360,Saint-Georges,4,Soissonais,Synopsis.php?id=CHIVRE-V,Chivres-Val 
,,,,,,,,,,,,,,,,,,,,Seine-et-Marne,49.423,1.7182,Saint-Pierre,4,Beauvaisis,Synopsis.php?id=NEUF-M,Neuf-Marche 
,,,,,,,,,,,,,,,,,,,,Aisne,49.633,3.8420,Saint-Pierre,4,Laonnois,Synopsis.php?id=CHIVRE-L,Chivres-en-Laonnais 
,50.0,,,50.0,45.0,20.0,,,,,,15.0,20.0,,,,,,,Val-de-Marne,48.732,2.5508,Saint-Julien-de-Brioude,2,Parisis,Synopsis.php?id=MAROLL-B,Marolles-en-Brie 
,,,,,,30.0,,,100.0,,,,,27.0,,,,,,Seine-et-Marne,48.152,2.8352,Saint-Martin,2,Gâtinais,Synopsis.php?id=BRANSLES,Bransles 
,,,,,,,46.0,56.0,,,,,17.0,,,12.0,,5.0,,Oise,49.258,2.8217,Saint-Laurent,3,Senlisis,Synopsis.php?id=ROCQUEMO,Rocquemont 
,,33.0,,,,53.0,55.0,,,,,,,,,,,,,Marne,49.225,3.9096,Saint-Remi,3,Reimois,Synopsis.php?id=COULOM-M,Coulommes-la-Montagne 
,,,,,,,,25.0,30.0,37.0,,,,,,,,,,Aisne,49.375,3.2774,Saint-Léger,2,Soissonais,Synopsis.php?id=MERCIN-V,Mercin-et-Vaux 
,,,,,,,,,26.0,,,,,,52.0,,,,,Val-de-Marne,48.727,2.4484,Saint-Georges,3,Parisis,Synopsis.php?id=VLNV-G,Villeneuve-Saint-Georges 
,,,,,,,,,,,,,,,,,,,,Seine-et-Marne,48.861,3.3413,Saint-Remi,4,Brie,Synopsis.php?id=VLNV-B,Villeneuve-sur-Bellot 
,,,,,,,,,,,,,,,,,,,,Aisne,49.397,3.4678,Saint-Ouen,2,Soissonais,Synopsis.php?id=CONDE-O,Conde-sur-Aisne 
,,,,,,,,,,,,,,,,,,,,Marne,49.043,4.1791,Saint-Remi,4,Châlonais,Synopsis.php?id=CONDE-M,Conde-sur-Marne 
,,,,,,,,,,,,,,,,,,,,Yvelines,48.872,1.9723,Sainte-Geneviève,4,Meulanois,Synopsis.php?id=FEUCHERO,Feucherolles 
,,,,,,,,,,,,,,,,,,,,Marne,49.356,4.2003,Saint-Denis,4,Reimois,Synopsis.php?id=ISLES-S,Isles-sur-Suippe 
,,,,,,,,,,,,,,,,,,,,Val-d'Oise,49.173,2.0557,Notre-Dame-de-l'Assomption,4,Vexin,Synopsis.php?id=HARAVILL,Haravilliers 
,,,,,,,,,,48.0,,,,,,,,,,Aisne,49.397,3.4699,Saints-Pierre-et-Paul,3,Soissonais,Synopsis.php?id=CONDE-P,Conde-sur-Aisne 
,,,,,,,,,,,,,,,,,,,,Essonne,48.569,2.0348,Saint-Cyr,4,Perche,Synopsis.php?id=S-CYR-DR,Saint-Cyr-sous-Dourdan 
,,,,,,,,,,,,,,,,,,,,Marne,49.029,4.3182,Sainte-Madeleine,2,Châlonais,Synopsis.php?id=VEUVE,"Veuve, La "
,,,,,,,,,,,,,,,,,,,,Essonne,48.464,2.4312,Saint-Léonard,4,Gâtinais,Synopsis.php?id=VIDELLES,Videlles 
,,,,,,,,,,,,,,,,,,,,Marne,49.330,3.7692,Saints-Timothée-et-Apolinaire,4,Soissonais,Synopsis.php?id=ROMAIN,Romain 
,,,,,,,40.0,15.0,,,,34.0,,,,,18.0,,,Aisne,49.407,3.4251,Saints-Rufin-et-Valère,3,Soissonais,Synopsis.php?id=VREGNY,Vregny 
,,,,,,76.0,16.0,20.0,,,,,,,,,,,,Oise,49.317,2.4486,Saint-Aubin,2,Therain,Synopsis.php?id=CAUFFRY,Cauffry 
,,,,,,,,,,,,,,10.0,73.0,,7.0,,,Oise,49.237,2.0773,La Nativité,3,Vexin,Synopsis.php?id=VLNV-S,Villeneuve-les-Sablons 
,,,,,,,,,,,,,,,,,,,,Aisne,49.403,3.3601,Saint-Maurice,4,Soissonais,Synopsis.php?id=CROUY,Crouy 
,,,,,,,,,,,,,,,,,,,,Seine-et-Marne,48.742,3.3204,Saint-Médard,4,Brie,Synopsis.php?id=S-MARS-B,Saint-Mars-en-Brie 
,,55.0,,,,,,,,,,25.0,10.0,,,,,33.0,,Oise,49.284,2.8782,Saint-Médard,2,Senlisis,Synopsis.php?id=BETHANCO,Bethancourt-en-Valois 
,,,,,,,,,,,,,,,,,,,,Oise,49.540,2.7458,Saint-Louis,4,Noyonnais,Synopsis.php?id=RESSONS,Ressons-sur-Matz 
,,,,,,,,,,,,,,,,,,,,Marne,49.260,3.6809,Notre-Dame,4,Soissonais,Synopsis.php?id=MONT-C,Mont-sur-Courville 
,,,,,,,,,,,,,,,23.0,,21.0,,,Loiret,48.160,2.3354,Saint-Gault,3,Gâtinais,Synopsis.php?id=YEVRE-C,Yevre-le-Chatel 
,,,,,,,,,,,,,,,,,,,,Oise,49.349,2.2815,Saint-Félix,4,Therain,Synopsis.php?id=S-FELIX,Saint-Felix 
,,,,,,,,,,,,,,,,,80.0,,,Aisne,49.323,3.4453,Saint-Jean-de-Jerusalem,2,Soissonais,Synopsis.php?id=MONT-S,"Mont-de-Soissons, Le (Serches) "
,,,,,,,,,,,,,,,,,,,,Loiret,48.145,2.3278,Sainte-Brigide,4,Gâtinais,Synopsis.php?id=YEVRE-V,Yevre-la-Ville 
,,,,,,,,,,,,,,,,90.0,,,,Aisne,49.291,3.5529,Notre-Dame-de-l'Assomption,3,Soissonais,Synopsis.php?id=TANNIERE,Tannieres 
,,,,,,,,,,,,,10.0,,,,,,,Aisne,49.283,3.4170,Saint-Jean-Baptiste,3,Soissonais,Synopsis.php?id=MURET-C,Muret-et-Crouttes 
,,,,,,,,,,,,,,,,,,,,Oise,49.235,1.9121,Notre-Dame-de-l'Assomption,4,Vexin,Synopsis.php?id=LIANCOUR,Liancourt-Saint-Pierre 
,,,,,,,,,,,,36.0,70.0,28.0,,,,,,Yonne,48.287,3.2046,Notre-Dame-de-l'Assomption,3,Yonne,Synopsis.php?id=PONT-Y,Pont-sur-Yonne 
,,,,,66.0,,,,,,,,,,,,,,,Marne,48.858,4.4839,La Nativité,2,Châlonais,Synopsis.php?id=POGNY,Pogny 
,,,,,,,,,,,,,,,,,,,,Essonne,48.315,2.0873,Saint-Pierre-ès-Liens,4,Gâtinais,Synopsis.php?id=MEREVILL,Mereville 
,,,,,,,,,,,,,,,,,,,,Essonne,48.504,2.0213,Saint-Léonard,4,Perche,Synopsis.php?id=GRANGE-R,"Granges-le-Roi, Les "
,,,,,,100.0,,,,80.0,25.0,,,,,,,,,Aisne,49.252,3.4639,Saint-Martin,3,Soissonais,Synopsis.php?id=ARCY-R,Arcy-Sainte-Restitue 
,,,,,,,,,,,,22.0,,,,,,,,Aisne,49.243,3.1538,Saint-Leu,3,Soissonais,Synopsis.php?id=DAMPLEUX,Dampleux 
,,,,,,,,,,,,,,,,,,,,Marne,48.808,3.6912,Saint-Nicolas,4,Marne,Synopsis.php?id=VLNV-CH,Villeneuve-les-Charleville 
,,,,,,,,,,,,,,,,,,,,Yvelines,49.040,1.6893,Saint-Martin,4,Meulanois,Synopsis.php?id=S-MTN-GR,Saint-Martin-la-Garenne 
,,,,,,,,,,,,,,,,,,,,Essonne,48.500,2.1707,Saint-Jean-Baptiste,4,Parisis,Synopsis.php?id=CHAUFFOU,Chauffour-les-etrechy 
,,,,,,,,,,,,,,,,,,,,Yvelines,48.920,1.7651,Saint-Denis,4,Meulanois,Synopsis.php?id=GOUSSONV,Goussonville 
,,,,,,,,,,,,,,,,,,,,Aisne,49.488,3.7444,Saint-Pierre-ès-Liens,4,Laonnois,Synopsis.php?id=VAURSEIN,Vaurseine 
,,,,,,,,,,,,,87.0,,48.0,43.0,,,,Aisne,49.515,3.6817,Saint-Nicolas,2,Laonnois,Synopsis.php?id=CHERET,Cheret 
,,,,,,,,,,,,,,,,,,,,Seine-et-Marne,48.267,2.6968,Saint-Jean-Baptiste,4,Gâtinais,Synopsis.php?id=NEMOURS,Nemours 
,,,,,,,,,,56.0,,,,,104.0,108.0,14.0,,,Val-de-Marne,48.812,2.5120,Saint-Saturnin,2,Parisis,Synopsis.php?id=CHMPNY-M,Champigny-sur-Marne 
,,,,,,,,,,,,,,,,,,,,Marne,49.268,3.9741,Saint-Théodulphe,4,Reimois,Synopsis.php?id=CHMPNY-V,Champigny-sur-Vesle 
,,,,,,,,,,,,,,,,,66.0,,,Essonne,48.697,2.5030,Saint-Médard,3,Parisis,Synopsis.php?id=BRUNOY,Brunoy 
,,,,,,,,,,,,,,,,,,,,Val-d'Oise,49.077,2.3067,Notre-Dame-de-l'Assomption,4,Vexin,Synopsis.php?id=MAFFLIER,Maffliers 
,,,,,,,,,,,,,,,,51.0,,,,Aisne,49.146,3.5552,La Nativité,1,Soissonais,Synopsis.php?id=FRESNE-T,Fresnes-en-Tardenois 
,,,,,,,,,,,,,,,,,,,,Yvelines,48.576,1.8788,Saint-Georges,4,Perche,Synopsis.php?id=SONCHAMP,Sonchamp 
,,,,,,14.0,28.0,,,,,,,45.0,,,,,,Oise,49.254,1.9838,Notre-Dame-de-l'Assomption,2,Vexin,Synopsis.php?id=FRESNE-L,Fresne-Leguillon 
,,,,,,,,,,,,,,,,,,,,Oise,49.197,2.8410,Saint-Martin,4,Senlisis,Synopsis.php?id=ORMOY-V,Ormoy-Villers 
,,,,,,,,,,,,,,,,,,,,Oise,49.164,2.8701,Farm,4,Senlisis,Synopsis.php?id=BSSY-F-G,Boissy-Fresnoy 
,,,,,,,,,49.0,,,,,,,,45.0,48.0,,Marne,49.370,3.8963,Saints-Cyr-et-Julitte,3,Outliers,Synopsis.php?id=CORMICY,Cormicy 
,,,,,,,25.0,,,,,,,,,,,,,Oise,49.164,2.8708,Saint-Étienne,3,Senlisis,Synopsis.php?id=BSSY-F-E,Boissy-Fresnoy 
,,,,35.0,30.0,35.0,30.0,,,,,16.0,,,22.0,,,,,Oise,49.275,2.3153,Saint-Denis,1,Therain,Synopsis.php?id=FOULANGU,Foulangues 
,,,,,,,,,220.0,220.0,120.0,180.0,200.0,200.0,200.0,170.0,200.0,,,Aisne,49.564,3.6250,Notre-Dame,1,Laonnois,Synopsis.php?id=LAON,Laon 
,,,,,,,,,,,,,,,,,,,,Aisne,49.621,3.5646,Saint-Remi,4,Laonnois,Synopsis.php?id=VIVAISE,Vivaise 
,,,,,,,,,,,,24.0,,16.0,,,,,,Aisne,49.213,3.4802,Notre-Dame-de-l'Assomption,3,Soissonais,Synopsis.php?id=SAPONAY,Saponay 
,,,,,,,,,,,,,,,,,,,,Yvelines,48.833,2.0122,Saint-Germain-d'Auxerre,4,Parisis,Synopsis.php?id=VILLEPRE,Villepreux 
,,,,,,,32.0,,,,,37.0,88.0,,,60.0,50.0,35.0,,Hauts-de-Seine,48.796,2.3025,Saint-Hermeland,1,Parisis,Synopsis.php?id=BAGNEU-H,Bagneux 
,,,,,,,,,,,,,,,,,,,,Aisne,49.457,3.2797,Saint-Martin,4,Soissonais,Synopsis.php?id=BAGNEU-M,Bagneux 
,,,,,,,,,,,,,25.0,40.0,18.0,,,,,Seine-et-Marne,48.777,3.3362,Saint-Martin,2,Brie,Synopsis.php?id=S-MTN-CJ,Saint-Martin-des-Champs 
,,,,,,,,,,,,,,42.0,,,46.0,,,Aisne,49.031,3.5308,Saint-Georges,3,Marne,Synopsis.php?id=CONNIGIS,Connigis 
,,,,,,,,62.0,,,,,,,,,,,,Seine-et-Marne,48.684,3.2263,Saint-Loup-de-Sens,3,Brie,Synopsis.php?id=BOISDON,Boisdon 
,,,,,,,,,,,,,,,,,,,,Oise,49.315,2.6221,Saint-Lucien,4,Senlisis,Synopsis.php?id=SARRON,Sarron (Pont-Sainte-Maxence) 
,32.0,,,,,,,,,,,,,,,48.0,,,,Aisne,49.294,3.5794,Notre-Dame,1,Soissonais,Synopsis.php?id=MONT-ND,Mont-Notre-Dame 
,,,,,,,,,,,40.0,,54.0,,46.0,15.0,,,,Oise,49.258,2.8554,Saint-Pierre,2,Senlisis,Synopsis.php?id=SERY-MAG,Sery-Magneval 
,,,,,,,,,,,,,,,,,,,,Oise,49.416,2.8004,Saint-Martin,4,Noyonnais,Synopsis.php?id=VENETTE,Venette 
,,,,,,,146.0,,,62.0,78.0,,,,,,,,,Essonne,48.482,2.3473,Notre-Dame-de-l'Assomption,1,Parisis,Synopsis.php?id=FERTE-A,"Ferte-Alais, La "
,,,,,,,,,,,,,,,,,,,,Aisne,49.179,3.1249,Saint-Vaast,4,Soissonais,Synopsis.php?id=FERTE-M,"Ferte-Millon, La "
,,,,,,,,,24.0,34.0,,,,,42.0,11.0,,,,Marne,49.094,3.6730,Saint-Remi,2,Marne,Synopsis.php?id=VERNEU-M,Verneuil-sur-Marne 
,,,,,,,,,,,,,,,,,,,,Loiret,48.238,2.0360,Saint-Germain,4,Gâtinais,Synopsis.php?id=ERCEVILL,Erceville 
,,,,,,,,,,,,,,,,,,,,Oise,49.332,2.2068,Saint-Pierre,4,Beauvaisis,Synopsis.php?id=LONGVILL,Longvillers 
,,,,,,,,,,,,,,,,,,,,Oise,49.274,2.5169,Saint-Honoré,4,Senlisis,Synopsis.php?id=VERNEU-H,Verneuil-en-Halatte 
,,,,,,,,,,,,,,26.0,38.0,,,,,Loiret,47.993,2.4667,Saint-Denis,2,Gâtinais,Synopsis.php?id=OUZOUER,Ouzouer-sous-Bellegarde 
,,,,,,,70.0,65.0,,,,,,10.0,130.0,80.0,60.0,,,Essonne,48.514,2.4458,Notre-Dame-de-l'Assomption,2,Parisis,Synopsis.php?id=CHAMPCUE,Champcueil 
,,,,,,,,,,,,,,,,,,,,Aisne,49.478,3.1352,Saint-Médard,4,Soissonais,Synopsis.php?id=AUDIGNIC,Audignicourt 
,,,,,,,,,,,,,,,,,,,,Eure-et-Loir,48.406,1.1326,Saint-Eustache,2,Perche,Synopsis.php?id=THIEULIN,"Thieulin, Le "
,,,,,,,,,,,,,,,,80.0,,,,Essonne,48.714,2.4611,Saint-Eutrope,3,Parisis,Synopsis.php?id=CROSNE,Crosne 
,,,,,,,,,,98.0,,,,78.0,71.0,87.0,,,,Loiret,47.824,1.6950,Saint-Liphard,3,Outliers,Synopsis.php?id=MEUNG-L,Meung-sur-Loire 
,,,,,,,,,,,,,,,,,,,,Seine-et-Marne,48.644,2.8631,Notre-Dame-de-l'Assomption,4,Provinois,Synopsis.php?id=BEAUVOIR,Beauvoir 
,,,,,,,,,,,,,,,,,,,,Seine-et-Marne,48.782,2.6010,Saint-Denis,4,Parisis,Synopsis.php?id=PONTAULT,Pontault-Combault 
,,,,,,,,,,,,,,,,,,,,Essonne,48.628,2.0985,Notre-Dame-de-l'Assomption,4,Perche,Synopsis.php?id=FORGES-B,Forges-les-Bains 
,,,,,,,,,,,,,,,,,,,,Seine-et-Marne,48.653,2.9030,Notre-Dame-de-l'Assomption,4,Brie,Synopsis.php?id=COURTOME,Courtomer 
,,,,,,,,,,,60.0,78.0,,,,,,,,Aisne,49.140,3.2351,Saint-Médard,2,Soissonais,Synopsis.php?id=COINTICO,Cointicourt 
,,,,,,,,,,45.0,38.0,40.0,48.0,,50.0,,,,,Aisne,49.302,3.4045,Saint-Jean-Baptiste,2,Soissonais,Synopsis.php?id=CHACRISE,Chacrise 
,,,,,,,,,,,,,,,,,,,,Essonne,48.692,2.2692,Notre-Dame-de-l'Assomption,4,Parisis,Synopsis.php?id=SAULX-C,Saulx-les-Chartreux 
,,,,,,,,,,,,,,,,,,,,Eure,49.250,1.6986,Notre-Dame-de-Chêne,4,Beauvaisis,Synopsis.php?id=DANGU,Dangu 
,,,,,,,,,,,,,,,,,,,,Seine-et-Marne,48.550,2.6995,Saint-Étienne,4,Parisis,Synopsis.php?id=MAINCY,Maincy 
,,,,,,,,,,,,,,109.0,96.0,,60.0,90.0,,Seine-et-Marne,48.482,3.2513,Saint-Étienne,2,Provinois,Synopsis.php?id=CHALMAIS,Chalmaison 
,,,,,,,,,,,,,,,,,,,,Aisne,49.365,3.7012,Saint-Hilaire,4,Soissonais,Synopsis.php?id=REVILLON,Revillon 
,,,,,,,,,,,,,,,,,,,,Marne,48.914,3.6052,Saint-Barthélémy,4,Marne,Synopsis.php?id=CORROBER,Corrobert 
,,,,,,,,,165.0,38.0,,51.0,,,,,,,,Yvelines,49.006,1.9082,Saint-Nicolas,2,Meulanois,Synopsis.php?id=MEULAN,Meulan 
,,,,,,,,,,,,,,,,,,,,Marne,48.840,4.1458,Notre-Dame-de-l'Assomption,4,Châlonais,Synopsis.php?id=VILLESEN,Villeseneux 
,,,,,,,,40.0,,,,,,,,29.0,,,,Eure-et-Loir,48.511,1.5513,Saints-Cyr-et-Julitte,3,Perche,Synopsis.php?id=JOUY,Jouy 
,,,,,,,,,,,,,,,,,,,,Loiret,48.212,2.0223,Saint-Laurent,4,Gâtinais,Synopsis.php?id=OUTARVIL,Outarville 
,80.0,30.0,,,,60.0,,,80.0,50.0,35.0,40.0,33.0,50.0,50.0,,,,,Seine-Maritime,49.483,1.7281,Saint-Hildevert,1,Beauvaisis,Synopsis.php?id=GOURNAY,Gournay-en-Bray 
,,,,,,,,,32.0,,,,23.0,,,,,,,Oise,49.354,1.7691,Saint-Denis,3,Beauvaisis,Synopsis.php?id=SERIFONT,Serifontaine 
,,33.0,15.0,,35.0,,16.0,,,20.0,,,,,25.0,25.0,,,,Oise,49.367,2.5106,Saint-Vaast,2,Therain,Synopsis.php?id=CATENOY,Catenoy 
,,,,,,,,,,,,,,,,,,,,Marne,48.579,4.4036,Saint-Léonard,4,Outliers,Synopsis.php?id=BREBAN,Breban 
,,30.0,,,,,,,,,,,,,,,,,,Oise,49.236,2.8831,Saint-Arnoul,1,Senlisis,Synopsis.php?id=CRPY-V-A,Crepy-en-Valois 
,,,,,,,,,,,,,,,,73.0,,,,Seine-et-Marne,49.069,2.8118,Saint-Germain-d'Auxerre,3,Senlisis,Synopsis.php?id=OISSERY,Oissery 
,,,,,,,,,,,,48.0,97.0,,,,,,,Seine-et-Marne,48.509,3.2286,Saint-Meuge,2,Provinois,Synopsis.php?id=LOURPS,Lourps 
,,,,,,47.0,22.0,,12.0,38.0,,,,,,,,15.0,,Yvelines,48.893,1.8644,Saint-Martin,2,Meulanois,Synopsis.php?id=MREIL-ML,Mareil-sur-Mauldre 
,,,,,,,,,,,,,,,,,,,,Seine-et-Marne,48.347,2.6422,Saint-Martin,4,Gâtinais,Synopsis.php?id=RECLOSES,Recloses 
,,,,,,,,,,,,85.0,25.0,15.0,54.0,,,,,Oise,49.269,2.8475,Saint-Marguérite,2,Senlisis,Synopsis.php?id=GLAIGNES,Glaignes 
,,,,,,,,,,,,,,,,,,,,Marne,49.682,4.3790,Saint-André,4,Outliers,Synopsis.php?id=SOMPUIS,Sompuis 
,,,,,,,,,,,,,,,,,,,,Seine-et-Marne,48.918,2.6038,Saint-Médard,4,Parisis,Synopsis.php?id=COURTRY,Courtry 
,,,35.0,,18.0,24.0,,,,,,,,10.0,,,68.0,,,Val-d'Oise,49.075,2.0039,Notre-Dame,2,Vexin,Synopsis.php?id=COURC-VI,Courcelles-sur-Viosne 
,,35.0,,,,,,,,,,,,,,,,,,Aisne,49.338,3.5715,Saints-Pierre-et-Paul,3,Soissonais,Synopsis.php?id=COURC-VE,Courcelles-sur-Vesle 
,,,,,,,,,,,,,,,,,,,,Aisne,49.457,3.5587,La Nativité,4,Laonnois,Synopsis.php?id=FILAIN,Filain 
,,,,,,,,,,,,,,,68.0,,,,,Paris,48.855,2.3846,Saint-Germain,2,Parisis,Synopsis.php?id=CHARONNE,Charonne 
,,,,,,,,,,56.0,,,,,66.0,,,,,Val-d'Oise,49.062,1.9312,Saint-Gildard,3,Meulanois,Synopsis.php?id=LONGUESS,Longuesse 
,,,18.0,,45.0,,,,,,,,,,,,,,,Oise,49.306,2.7702,Saint-Médard,2,Senlisis,Synopsis.php?id=SAINTINE,Saintines 
,,,,,,,45.0,24.0,,,,,,,,,,,,Aisne,49.307,3.6846,Saint-Macre,3,Soissonais,Synopsis.php?id=FISMES,Fismes 
,,,,,,,,,,16.0,,,89.0,87.0,48.0,,,,,Val-d'Oise,49.033,2.0617,Saint-Christophe,2,Vexin,Synopsis.php?id=CERGY,Cergy 
,,,,,,,,,,,,,,,,,,,,Oise,49.470,2.8169,Saint-Benigne,4,Noyonnais,Synopsis.php?id=GIRAUMON,Giraumont 
,,,,,,,,,,,,82.0,56.0,30.0,21.0,,,,,Oise,49.114,2.9312,Saint-Pierre,2,Soissonais,Synopsis.php?id=BOUILLAN,Bouillancy-le-Bas 
,,,,,12.0,,24.0,,20.0,50.0,,,,,,,40.0,54.0,,Oise,49.330,2.3986,Saint-Étienne,1,Therain,Synopsis.php?id=CAMBRONN,Cambronne-les-Clermont 
,,,,,,,,,,,,,,,,,,,,Eure-et-Loir,48.114,1.4436,Notre-Dame,4,Perche,Synopsis.php?id=CONIE-M,Conie-Molitard 
,,,,,,50.0,40.0,45.0,,,,,,,,,,,,Paris,48.866,2.3547,Saint-Martin-des-Champs,1,Parisis,Synopsis.php?id=PARIS-MC,Paris 
,,,,,,,,,,,,,,,,,,,,Marne,49.422,4.1005,Saint-Pierre,4,Reimois,Synopsis.php?id=POILCOUR,Poilcourt-Sydney 
,,,,,,,,,,,25.0,,,,,,,,,Aisne,49.551,3.4688,Saint-Remi,3,Laonnois,Synopsis.php?id=SUZY,Suzy 
,,,,,,,,,,,,,33.0,,,,,,,Aisne,49.409,3.7019,Saints-Pierre-et-Paul,3,Soissonais,Synopsis.php?id=CUISSY-G,Cuissy-et-Geny 
,,,,,,,,,42.0,,21.0,33.0,59.0,,,36.0,,42.0,,Val-d'Oise,49.053,2.4512,Saint-Aquilin,2,Parisis,Synopsis.php?id=FONTEN-P,Fontenay-en-Parisis 
,,,,,,,,,,,,,,,,,,,,Oise,49.568,1.7683,Notre-Dame-de-l'Assomption,4,Beauvaisis,Synopsis.php?id=FONTEN-T,Fontenay-Torcy 
,,,,,,,,,,,,,,,,,,,,Aisne,49.378,3.5062,Saint-Martin,4,Soissonais,Synopsis.php?id=CHASSEMY,Chassemy 
,,,,,,,,,26.0,,,35.0,,,,,,,,Ardennes,49.426,4.1774,Notre-Dame,3,Reimois,Synopsis.php?id=ROIZY,Roizy 
,,,,,,,,,,,,,,,,,,,,Eure-et-Loir,48.195,1.9380,Saint-Denis,4,Gâtinais,Synopsis.php?id=TOURY,Toury 
,,,,,,,,,,,,,,,,,,,,Val-de-Marne,48.847,2.4721,Saint-Germain-d'Auxerre,4,Parisis,Synopsis.php?id=FONTEN-B,Fontenay-sous-Bois 
,,,,,,,,,,,,,,,,,,,,Eure-et-Loir,48.395,1.4124,Saint-Séverin,4,Perche,Synopsis.php?id=FONTEN-E,Fontenay-sur-Eure 
,,,,,,,,,,,,,,,,,,,,Aisne,49.322,3.5497,Saint-Remi,4,Soissonais,Synopsis.php?id=LIME,Lime 
,,,,,,,,,,,,,,,,,,,,Aisne,49.326,3.3550,Saint-Martin,4,Soissonais,Synopsis.php?id=ROZIERES,Rozieres-sur-Crise 
,,,,,,,,,,,,17.0,27.0,,,20.0,20.0,,,Loiret,48.035,2.4890,Saint-Benoît,2,Gâtinais,Synopsis.php?id=MEZIER-G,Mezieres-en-Gatinais 
,,,,,30.0,35.0,,,,24.0,25.0,,,,,,,,,Essonne,48.403,2.2630,Saint-Martin,4,Gâtinais,Synopsis.php?id=PUISELET,Puiselet-le-Marais 
,,,,,,,,,,,,,,,,,,,,Aisne,49.474,3.6670,Saint-Martin,4,Laonnois,Synopsis.php?id=CHAMOUIL,Chamouille 
,,,,,,,,,,,,,,,,,,,,Yvelines,48.960,1.7956,Saint-Nicolas,4,Meulanois,Synopsis.php?id=MEZIER-S,Mezieres-sur-Seine 
,,,,,,,,,,,,,54.0,12.0,44.0,,12.0,,,Oise,49.116,3.0611,Saint-Brice,3,Soissonais,Synopsis.php?id=NEUFCHEL,Neufchelles 
,,,,,,,,,,,,,,,,,,,,Aisne,49.339,3.4491,Saints-Crépin-et-Crépinien,4,Soissonais,Synopsis.php?id=SERCHES,Serches 
,,,,,,,47.0,78.0,53.0,,,,,,,,,,,Oise,49.593,2.7732,Saint-Martin,1,Noyonnais,Synopsis.php?id=ROYE-M,Roye-sur-Matz 
,,,,,,,,34.0,,300.0,300.0,300.0,400.0,200.0,350.0,300.0,110.0,40.0,,Paris,48.853,2.3499,Notre-Dame,1,Parisis,Synopsis.php?id=PARIS,Paris 
,,,,,,,,,,14.0,,,,36.0,29.0,,,,,Seine-et-Marne,48.388,2.8471,Saint-Fortune,4,Provinois,Synopsis.php?id=VERNOU-C,Vernou-la-Celle-sur-Seine 
,,,,,,,,,,,,,,,,,,,,Aisne,49.435,3.5164,Saint-Bandry,4,Soissonais,Synopsis.php?id=AIZY-J,Aizy-Jouy 
,,,,,,,,,,,,,21.0,,,10.0,20.0,,,Essonne,48.513,2.2179,Saint-Quentin,3,Parisis,Synopsis.php?id=CHAMARAN,Chamarande 
,,,,,,,,,,,,,,,,,,,,Essonne,48.522,2.2662,Saint-Pierre,4,Parisis,Synopsis.php?id=LARDY,Lardy 
,,,,,,,,33.0,,25.0,15.0,,,,,,,,,Aisne,49.379,3.2365,Saint-Léger,2,Soissonais,Synopsis.php?id=PERNANT,Pernant 
,,,,,,,,,,,,,,,,,,,,Aisne,49.263,3.5032,Saint-Maurice,4,Soissonais,Synopsis.php?id=BRANGES,Branges 
,,,,,,,,,,,,,,,,,,,,Seine-et-Marne,48.244,2.6145,Saint-Fiacre,4,Gâtinais,Synopsis.php?id=CHEVRAIN,Chevrainvilliers 
,,,,,,,,,,81.0,66.0,,,,,,,,,Oise,49.385,3.0109,Saint-Martin,2,Soissonais,Synopsis.php?id=CUISE-M,Cuise-la-Motte 
,,,,50.0,,,,,,,,,,,,,100.0,,,Oise,49.212,2.2355,Saint-Germain,3,Therain,Synopsis.php?id=PUISEU-H,Puiseux-le-Hauberger 
,,,,,,,,,82.0,77.0,,,,,,,,,,Aisne,49.564,3.6264,Bishop's Chapel,1,Laonnois,Synopsis.php?id=LAON-EV,Laon 
,,,,,,,,,,,,,,,,,,,,Eure-et-Loir,48.775,1.5544,Saint-Aignan-d'Orleans,4,Perche,Synopsis.php?id=GOUSSAIN,Goussainville 
,,,,,,,,,,,,,,,,,,,,Oise,49.554,2.7576,La Nativité,4,Noyonnais,Synopsis.php?id=RICQUEBO,Ricquebourg 
,,,,,,,,,,,,,,,24.0,,,,,Essonne,48.473,2.3547,Saint-Hilaire,3,Parisis,Synopsis.php?id=GUIGNV-E,Guigneville-sur-Essonne 
,,,,,,,,,,,,,,,,,,,,Oise,49.289,2.1970,Sainte-Geneviève,4,Therain,Synopsis.php?id=STE-GENV,Sainte-Genevieve 
,20.0,28.0,,,,,,,,,,10.0,32.0,,,,17.0,,,Aisne,49.011,3.5715,La Nativité,2,Marne,Synopsis.php?id=CELLES-C,Celles-les-Conde 
,,,,,,,,,,,,,,,,,,,,Aisne,49.404,3.4821,Saint-Laurent,4,Soissonais,Synopsis.php?id=CELLES-A,Celles-sur-Aisne 
,,,,,,,,,,,,,,,,,,,,Marne,49.019,4.2623,La Nativité,4,Châlonais,Synopsis.php?id=JUVGNY-N,Juvigny 
,,,,,,,,,,,,,,,,,,,,Aisne,49.448,3.3203,Saint-Juvin,4,Soissonais,Synopsis.php?id=JUVGNY-J,Juvigny 
,,,,,,,,,,,,,,,,,,,,Aisne,49.205,3.2114,Saint-Martin,4,Soissonais,Synopsis.php?id=NOROY-O,Noroy-sur-Ourcq 
,,,,,,,,,,,,,,,,,,,,Val-de-Marne,48.792,2.3638,Saints-Cyr-et-Juliette,4,Parisis,Synopsis.php?id=VILLEJUI,Villejuif 
,,,,,,,,,,,,,33.0,59.0,,,,,,Essonne,48.548,2.3975,Notre-Dame,3,Parisis,Synopsis.php?id=FONTEN-V,Fontenay-le-Vicomte 
,,,,,,,,,,,,,,,,,,,,Marne,49.091,4.1051,Saint-Hilaire,4,Châlonais,Synopsis.php?id=TAUXIERE,Tauxieres 
,,,,,,,,,,,,,,,,,,,,Aisne,49.410,3.7167,Saint-Pierre,4,Soissonais,Synopsis.php?id=JUMIGNY,Jumigny 
,,,,,,,,,,,,,,,,,,,,Aisne,49.469,3.7235,Saint-Évence,4,Laonnois,Synopsis.php?id=CHERMIZY,Chermizy-Ailles 
,,,,,,15.0,,,49.0,49.0,,,15.0,,,,,,,Yvelines,48.971,1.9837,Saint-Étienne,2,Meulanois,Synopsis.php?id=VERNOUIL,Vernouillet 
,,,,,,,,,,,,,,,,,,,,Aisne,49.385,3.7727,Saints-Gervais-et-Protais,4,Soissonais,Synopsis.php?id=CUIRY-C,Cuiry-les-Chaudardes 
,,,,,,,,,,,,,,,,,,,,Somme,49.942,2.1424,Saint-Martin,4,Outliers,Synopsis.php?id=PICQUIGN,Picquigny 
,,,,,,,,,,,24.0,,49.0,39.0,29.0,18.0,,,,Aisne,49.329,3.5999,Saint-Nicolas,3,Soissonais,Synopsis.php?id=PAARS,Paars 
,,,,,,,,,,,,,,47.0,24.0,11.0,,,,Seine-et-Marne,48.789,3.1243,Saint-Médard,2,Brie,Synopsis.php?id=CHAIL-BR,Chailly-en-Brie 
,,,,,,,,,,,,,,,,,,,,Seine-et-Marne,48.694,3.4365,Saint-Germain-d'Auxerre,4,Brie,Synopsis.php?id=MTCEAU-P,Montceaux-les-Provins 
,,,,,,,,,,,,,,,,,,,,Val-d'Oise,48.999,2.3553,Saint-Brice,4,Parisis,Synopsis.php?id=S-BRICE,Saint-Brice-sous-Foret 
,,,,,,,,,,,,,,,,,,,,Oise,49.180,2.6733,Sainte-Geneviève,4,Senlisis,Synopsis.php?id=BOREST-G,Borest 
,,,,,,,,,46.0,54.0,,16.0,,,35.0,,,,,Val-d'Oise,49.040,1.9414,Saint-Pierre-ès-Liens,3,Meulanois,Synopsis.php?id=CONDECOU,Condecourt 
,,,,,,,,,,6.0,,,,38.0,29.0,,,24.0,,Oise,49.180,2.6733,Saint-Martin,2,Senlisis,Synopsis.php?id=BOREST-M,Borest 
,,,,,,,,32.0,30.0,,,30.0,,,,,45.0,,,Marne,49.300,3.8538,Saint-Pierre,3,Soissonais,Synopsis.php?id=PROUILLY,Prouilly 
,,,,,,50.0,33.0,,,,,,,,,,,,,Marne,48.933,4.1009,La Nativité,3,Châlonais,Synopsis.php?id=ROUFFY,Rouffy 
,,,,,,,,,,124.0,,,,,,,144.0,54.0,,Oise,49.534,2.9744,Notre-Dame,2,Noyonnais,Synopsis.php?id=OURSCAMP,Ourscamp 
,,,,,,,,,14.0,18.0,,,,,86.0,,,,,Val-d'Oise,48.997,2.3791,Saints-Pierre-et-Paul,2,Parisis,Synopsis.php?id=SARCELLE,Sarcelles 
,,25.0,15.0,15.0,20.0,9.0,16.0,,53.0,35.0,,,,,,,,,,Aisne,49.201,3.6370,Saints-Rufin-et-Valère,1,Soissonais,Synopsis.php?id=COULONGE,Coulonges-Cohan 
,,,,35.0,,,,,,,,,,,,,,,,Val-d'Oise,49.165,2.0006,Saint-Georges,3,Vexin,Synopsis.php?id=HEAULME,"Heaulme, Le "
,,,,,,,,,,,,,,,,,,,,Essonne,48.572,2.4142,Saint-Martin,4,Parisis,Synopsis.php?id=ECHARCON,Echarcon 
,,,,,,,,,,,,,,,,,,,,Yvelines,48.816,1.9493,Saint-Pierre,4,Meulanois,Synopsis.php?id=PLAISIR,Plaisir 
,,,,,,,,,,,,,,,,,,,,Loiret,48.205,2.1781,Saint-Hilaire,4,Gâtinais,Synopsis.php?id=GUIGNVIL,Guigneville 
,,,,,,,,,,,,,57.0,,,,,,,Val-d'Oise,49.065,1.7012,La Nativité,2,Meulanois,Synopsis.php?id=VETHEUIL,Vetheuil 
,,,,,,,,,,,,,,,,,,,,Marne,48.975,4.0630,Saint-Thibaut,4,Châlonais,Synopsis.php?id=FLAVIGNY,Flavigny 
,,,,,,,,,,,,,,,,,,,,Essonne,48.558,2.1881,Saint-Yon,4,Parisis,Synopsis.php?id=S-YON,Saint-Yon 
,,,,37.0,20.0,25.0,,,,,,,,,,,,,,Aisne,49.467,3.6310,Saint-Martin,2,Laonnois,Synopsis.php?id=COLLIG-C,Crandelain 
,,,,,,,,,,,,,,,,,,,,Oise,49.358,2.1319,Saint-Sulpice,4,Beauvaisis,Synopsis.php?id=S-SULPCE,Saint-Sulpice 
,,,,,,,,,,,,,,,,,,,,Eure,49.240,1.6559,Saint-Maurice,4,Beauvaisis,Synopsis.php?id=VESLY,Vesly 
,,,,,,,,,,22.0,,,,,24.0,15.0,,,,Aisne,49.188,3.3111,Saint-Quentin,3,Soissonais,Synopsis.php?id=NANTEU-O,Nanteuil-sur-Ourcq (Vichel-Nanteuil) 
,,,,,,,,,35.0,70.0,,,68.0,14.0,,26.0,,,,Marne,49.256,3.7369,Saint-Pierre,2,Soissonais,Synopsis.php?id=CRUGNY,Crugny 
,,,35.0,14.0,,,,,,,,,,,80.0,35.0,,,,Val-d'Oise,49.016,2.0467,La Nativité,1,Vexin,Synopsis.php?id=JOUY-MOU,Jouy-le-Moutier 
,,,,,,,,,,,,,,,,,,,,Marne,48.963,4.6243,Saint-Hippolyte,4,Outliers,Synopsis.php?id=POIX,Poix 
,,,,,,,,,,,,,,,,,,,,Loiret,48.306,2.4082,Chapel,4,Gâtinais,Synopsis.php?id=ROUVILLE,Rouville 
,,,,,,,,,,,,,,,,,,,,Seine-et-Marne,48.223,2.8756,La Nativité,4,Yonne,Synopsis.php?id=PREAUX,Preaux 
,,,,,,,26.0,59.0,,,,,45.0,16.0,42.0,22.0,,,,Essonne,48.435,2.3763,Saint-Pierre,2,Gâtinais,Synopsis.php?id=BOUTIG-E,Boutigny-sur-Essonne 
,,,,,,,,,,,,,,,34.0,,,32.0,,Seine-et-Marne,48.794,3.2720,Saints-Pierre-et-Paul,2,Brie,Synopsis.php?id=JOUY-MOR,Jouy-sur-Morin 
,,,,,,,,,,,,,,,,,,,,Aisne,49.518,3.5053,Sainte-Geneviève,4,Laonnois,Synopsis.php?id=MERLIEUX,Merlieux-et-Fouquerolles 
,,,,,,,,,,,,,,,,,,,,Val-de-Marne,48.837,2.4874,Saint-Saturnin,4,Parisis,Synopsis.php?id=NOGENT-M,Nogent-sur-Marne 
,,15.0,44.0,,,,8.0,,,,,,,,,,,113.0,,Oise,49.280,2.4755,Saintes-Maure-et-Brigide,1,Therain,Synopsis.php?id=NOGENT-O,Nogent-sur-Oise 
,,,,,,,,,,,,,,,,80.0,,,,Aisne,48.966,3.3231,Saint-Germain,1,Marne,Synopsis.php?id=NOGENT-A,Nogent-lArtaud 
,,,,,,,,,,,,,,,40.0,,,,,Seine-et-Marne,48.744,3.2702,Saint-Pierre-ès-Liens,3,Brie,Synopsis.php?id=CHARTRON,Chartronges 
,,,,,,,,,,,,,,,,,,,,Oise,49.259,2.5841,Saint-Jacques-le-Majeur,1,Senlisis,Synopsis.php?id=FLEURINE,Fleurines 
,15.0,,,,,,,,,,,,,,,,,30.0,,Aisne,49.403,3.1096,Notre-Dame-de-l'Assomption,2,Soissonais,Synopsis.php?id=VIC-A,Vic-sur-Aisne 
,,,,,,,,,,,,,,,,,,,,Somme,49.917,1.7670,Notre-Dame-de-l'Assomption,4,Outliers,Synopsis.php?id=AUMATRE,Aumatre 
,,,,,,,,,,,,,,,,,,,,Aisne,49.435,3.4523,Saint-Médard,4,Soissonais,Synopsis.php?id=NANTEU-F,Nanteuil-la-Fosse 
,,,,,,,,,,,,,,,,,,,,Yvelines,48.571,1.9404,Saint-Arnoult,4,Perche,Synopsis.php?id=S-ARNL-Y,Saint-Arnoult-sur-Yvelines 
,,,,,,,,,,,,,,,,,,,,Oise,49.631,1.8212,Saint-Arnoult,4,Beauvaisis,Synopsis.php?id=S-ARNL-A,Saint-Arnoult 
,,,,,,,24.0,,,,,,,,,,,,,Oise,49.377,2.1770,Chapel in the Grange,3,Beauvaisis,Synopsis.php?id=S-ARNL-G,Saint-Arnoult 
,,,,,,130.0,128.0,29.0,,,,,,,,,,,,Marne,48.971,4.1672,Saint-Remi,3,Châlonais,Synopsis.php?id=CHMPGNL,Champigneul-Champagne 
,,,,,,,,,,,,,,,,,,,,Yonne,48.081,3.4138,Saint-Martin,4,Yonne,Synopsis.php?id=DIXMONT,Dixmont 
,,,,,,,,,,,,,,,,,,,,Seine-et-Marne,49.067,3.1256,Saint-Martin,4,Soissonais,Synopsis.php?id=COULOMBS,Coulombs-en-Valois 
,,,,,,,,,,,,,,,,,,,,Yvelines,48.893,1.6813,Saint-Nicolas,4,Meulanois,Synopsis.php?id=SEPTEUIL,Septeuil 
,,,,,,,,,,,,,,,,,,,,Loiret,47.860,2.8208,Saint-Léger,4,Gâtinais,Synopsis.php?id=MONTBOUY,Montbouy 
,,,,,,,,,,,40.0,22.0,2.0,,37.0,41.0,,,,Val-d'Oise,49.088,1.9822,Saint-Martin,2,Vexin,Synopsis.php?id=ABLEIGES,Ableiges 
,,,,,,,,,,,,,,,,,,,,Marne,48.908,4.0399,Saint-Pierre,4,Châlonais,Synopsis.php?id=VOIPREUX,Voipreux 
,,,,,,,,,,,,,,,,,,,,Yvelines,48.788,1.8197,Saint-Denis,4,Meulanois,Synopsis.php?id=MERE,Mere 
,,,,,,,,,,30.0,,,,,,,,,,Oise,49.259,2.6793,Saint-Pierre,3,Senlisis,Synopsis.php?id=BRASS-P,Brasseuse 
,,,,,,,,,,,,,,,,,,,,Essonne,48.448,2.1823,La Trinité,4,Parisis,Synopsis.php?id=MORIGNY,Morigny-Champigny 
,,,,,,,,,,,,,,,,,,,,Eure-et-Loir,48.308,1.5027,Saint-Martin-du-Val,4,Perche,Synopsis.php?id=BONCE,Bonce 
,,,,,,,44.0,,55.0,,,26.0,44.0,20.0,16.0,,,,,Oise,49.328,2.3266,Saint-Nicolas,3,Therain,Synopsis.php?id=ANGY,Angy 
,,,,,,,,,,,,,,,,,,,,Marne,48.718,4.9489,Notre-Dame,4,Outliers,Synopsis.php?id=TROIS-F,Trois-Fontaines-lAbbaye 
,,,,,,,,,,,,,,,,,,,,Oise,49.221,2.4521,Saint-Maximin,4,Senlisis,Synopsis.php?id=S-MAXMN,Saint-Maximin 
,,,,,,,,,,,,,,,,,,,,Sarthe,49.274,-0.452,La Nativité,4,Outliers,Synopsis.php?id=FONTAI-H,Fontaine-Henri 
,,,,,,,,,,,,118.0,,,,111.0,,,,Seine-et-Marne,48.410,3.4014,Saint-Martin,2,Provinois,Synopsis.php?id=FONTAI-F,Fontaine-Fourches 
,,,,,,,,,,,,,,,,,,,,Yvelines,48.687,2.0181,Saint-Jean-Baptiste,4,Parisis,Synopsis.php?id=CHOISEL,Choisel 
,,,,,,,,32.0,,,15.0,,,66.0,,,,,,Seine-et-Marne,48.653,2.6982,Notre-Dame-de-l'Assomption,2,Brie,Synopsis.php?id=SOIGNOLL,Soignolles-en-Brie 
,,,,,15.0,,20.0,,,,,,15.0,,,,,,,Oise,49.177,2.9570,Saint-Denis,4,Soissonais,Synopsis.php?id=BARGNY,Bargny 
,,,,,,,,,,,,,,,48.0,,,,,Val-d'Oise,49.096,2.1910,Saint-Quentin,3,Vexin,Synopsis.php?id=VALMONDO,Valmondois 
,,,,,,,,,,,,60.0,60.0,,,,,16.0,,Seine-et-Marne,48.372,2.8180,La Nativité,1,Provinois,Synopsis.php?id=MORET-L,Moret-sur-Loing 
,,,,,,,,,,,,,,,,,,,,Oise,49.369,2.0002,Notre-Dame-de-l'Assomption,4,Beauvaisis,Synopsis.php?id=AUNEUIL,Auneuil 
,,,,,,,,,,,,,,,,,,,,Seine-et-Marne,48.555,3.0141,Saint-Martin,4,Provinois,Synopsis.php?id=NANGIS,Nangis 
,,,,,,18.0,12.0,24.0,,48.0,45.0,,24.0,,,,,,,Aisne,49.338,3.5151,Saint-Remy,3,Soissonais,Synopsis.php?id=AUGY,Augy 
,,,,,,,,,,,,,33.0,77.0,27.0,37.0,25.0,,,Seine-et-Marne,48.367,2.5095,Notre-Dame-de-l'Assomption,2,Gâtinais,Synopsis.php?id=NOISY-E,Noisy-sur-Ecole 
,,,,,67.0,22.0,,,19.0,,,23.0,,,38.0,,16.0,,,Seine-St-Denis,48.850,2.5478,Saint-Sulpice,2,Parisis,Synopsis.php?id=NOISY-G,Noisy-le-Grand 
,,,,,,,,,,,,,,,73.0,,,,,Seine-et-Marne,48.693,3.3440,Saint-Brice,3,Brie,Synopsis.php?id=CERNEUX,Cerneux 
,,,,,,,,26.0,41.0,20.0,,,18.0,22.0,,,,,,Essonne,48.731,2.3271,Saint-Denis,2,Parisis,Synopsis.php?id=WISSOUS,Wissous 
,,,,,,,,20.0,,14.0,13.0,25.0,,14.0,,,,,,Aisne,49.182,3.2021,Sainte-Geneviève,3,Soissonais,Synopsis.php?id=MARIZY-G,Marizy-Sainte-Genevieve 
,,,,,,,,,,,,,,,,,,,,Seine-et-Marne,48.452,2.7520,Saint-Hilaire,4,Provinois,Synopsis.php?id=SAMOIS-S,Samois-sur-Seine 
,,,,,,,,,,,,,,,,,,,,Eure-et-Loir,48.270,1.5447,Saint-Hilaire,4,Perche,Synopsis.php?id=MONTAINV,Montainville 
,,,,,,,,,,,,,,,,20.0,48.0,,,Val-de-Marne,48.785,2.5789,Saint-Nicolas,3,Parisis,Synopsis.php?id=QUEUE-B,"Queue-en-Brie, La "
,,,,,,,,,,,,,,,,,,,,Eure-et-Loir,48.440,1.8122,Saint-Eloi,4,Perche,Synopsis.php?id=AUNAY-A,Aunay-sous-Auneau 
,,,,,,,,,,,,,,,,,,,,Aisne,49.263,3.4033,Notre-Dame-de-l'Assomption,4,Soissonais,Synopsis.php?id=LAUNOY,Launoy 
,,,,,,,,,,,,,,,,68.0,100.0,,,Seine-et-Marne,48.839,3.2558,Saint-Léger,2,Brie,Synopsis.php?id=S-LEGER,Saint-Leger 
,32.0,,,,,,58.0,,,,,,42.0,,,,,,,Eure-et-Loir,48.178,1.3882,Saint-Florentin,3,Perche,Synopsis.php?id=BONNEV-F,Bonneval 
,,,,,,,,,,,,,,,,,,,,Seine-et-Marne,48.857,3.3180,Saint-Loup-de-Troyes,4,Brie,Synopsis.php?id=BELLOT,Bellot 
,,,,,,,,,,,,,,,,,,,,Oise,49.210,2.7685,Saint-Martin,4,Senlisis,Synopsis.php?id=FRESNOY,Fresnoy-le-Luat 
,,,,,,,,,,,,,,,,,,,,Val-d'Oise,49.206,1.6793,Saint-Clair,4,Beauvaisis,Synopsis.php?id=S-CLAIR,Saint-Clair-sur-Epte 
,,,,,,,,,,,,,160.0,216.0,197.0,,,,,Eure-et-Loir,48.181,1.3865,Notre-Dame,1,Perche,Synopsis.php?id=BONNEV-N,Bonneval 
,,,,,,,,,,,,,,,,,,,,Aisne,49.428,3.1995,Notre-Dame-de-l'Assomption,4,Soissonais,Synopsis.php?id=NOUVRON,Nouvron-Vingre 
,30.0,,,,,,,,,,,,,,,,,,,Oise,49.446,2.2853,Notre-Dame-de-l'Assomption,3,Beauvaisis,Synopsis.php?id=REMERANG,Remerangles 
,,,,,,,,,,,,,,42.0,13.0,,,,,Val-d'Oise,49.089,2.3678,Saint-Georges,3,Parisis,Synopsis.php?id=BELLOY,Belloy-en-France 
,,,,,,,,,,11.0,,,,,88.0,38.0,,,,Loiret,47.988,2.4439,Notre-Dame,3,Gâtinais,Synopsis.php?id=BELLEGAR,Bellegarde-du-Loiret 
,,,,,,,,,,,,,,,,,,,,Loiret,48.270,2.0299,Saint-Pierre,4,Gâtinais,Synopsis.php?id=ANDONVIL,Andonville 
,,,,,,,,,,,,,,,,,,,,Aisne,49.393,3.2718,Saint-Martin,4,Soissonais,Synopsis.php?id=POMMIERS,Pommiers 
,,,,,,,,,,,50.0,47.0,,,,,,,,Marne,49.313,4.2644,Saint-Martin,3,Reimois,Synopsis.php?id=S-MASMES,Saint-Masmes 
,,,,,,,,,,,,,,,,,,,,Marne,49.158,4.3373,Saint-Memmie,4,Châlonais,Synopsis.php?id=BACONNES,Baconnes 
,,,,,,,,,53.0,42.0,,,23.0,,15.0,,,,,Marne,48.890,4.5426,Saint-Gérault,3,Châlonais,Synopsis.php?id=FRANCHEV,Francheville 
,,,,,,,,,,54.0,,,,,,,,,,Seine-et-Marne,48.960,2.8787,Bishop's Chapel,2,Brie,Synopsis.php?id=MEAUX-EV,Meaux 
,,,,,,,,,,,,,,,,,,,,Loiret,48.001,2.7334,Sainte-Madeleine,4,Gâtinais,Synopsis.php?id=MONTARGI,Montargis 
,,,,,,,,,,,,,26.0,,,,,,,Seine-et-Marne,48.904,3.2300,Saints-Pierre-et-Paul,3,Brie,Synopsis.php?id=ORLY-M,Orly-sur-Morin 
,,,,,,,,,,,,,130.0,93.0,32.0,,,,,Eure,49.014,1.3792,Saint-Aubin,1,Perche,Synopsis.php?id=PACY-E,Pacy-sur-Eure 
,,,,,,24.0,90.0,,,,,60.0,,250.0,,,90.0,,,Seine-et-Marne,48.583,2.8069,Saint-Martin,1,Parisis,Synopsis.php?id=CHAMPEAU,Champeaux 
,,,,,,,,,,,,,,,,,,,,Marne,49.290,4.2381,Saint-Pierre-ès-Liens,4,Reimois,Synopsis.php?id=EPOYE,Epoye 
,,,,,,,,,,,50.0,36.0,24.0,,,,,,,Oise,49.278,2.9444,Saint-Marguérite,3,Senlisis,Synopsis.php?id=PONDRON,Pondron 
,,,,,,,,,,,,,,,,,,,,Essonne,48.416,2.3791,Saints-Gervais-et-Protais,4,Parisis,Synopsis.php?id=COURDIMA,Courdimanche-sur-Essonne 
,,,,,,,,,,,,,,,,,,,,Oise,49.141,3.0880,Ferme-Clos-Reveil,4,Soissonais,Synopsis.php?id=FULAINES,Fulaines 
,,,,,64.0,53.0,,,,,,,,,,,,,,Yvelines,49.002,1.6979,Sainte-Anne,3,Meulanois,Synopsis.php?id=GASSICOU,Gassicourt 
,,,,,,,,,,,,,,,,,,,,Marne,49.236,4.4660,Saint-Sulpice,4,Reimois,Synopsis.php?id=S-SOUPLT,Saint-Souplet-sur-Py 
,,,,,,,,,,,,,,,,,,,,Aisne,49.439,3.5123,Saint-Médard,4,Soissonais,Synopsis.php?id=AIZY,Aizy 
,,,,,,,,,,,,,,,,,,,,Loiret,48.148,2.3680,Saint-Aignan,4,Gâtinais,Synopsis.php?id=GIVRAINE,Givraines 
,,,,,,,,,,,,,,,,,,,,Eure-et-Loir,48.270,1.2724,Saint-Avit,4,Perche,Synopsis.php?id=S-AVIT,Saint-Avit-les-Guespieres 
,,,,,,,,,,,,,,,,,,,,Aisne,49.475,3.6414,Saint-Nicolas,4,Laonnois,Synopsis.php?id=COLLIGIS,Colligis-Crandelain 
,,,,,,,,,,,,,30.0,,40.0,70.0,41.0,30.0,,Val-de-Marne,48.794,2.4612,Saint-Christophe,1,Parisis,Synopsis.php?id=CRETEIL,Creteil 
,45.0,,,,,,50.0,,,,,,,,,,,,,Aisne,49.413,3.0782,Saints-Sulpice-et-Aignan,2,Soissonais,Synopsis.php?id=BITRY,Bitry 
,,,,,,,,,,,,,,,,,,,,Marne,49.125,4.4732,Saint-Martin,4,Outliers,Synopsis.php?id=DOMMARTI,Dommartin-sous-Hans 
,,,,,,,,,,,,,,,500.0,700.0,700.0,700.0,,Marne,49.253,4.0336,Notre-Dame,1,Reimois,Synopsis.php?id=REIMS,Reims 
,,,,,,,,,,,,,,30.0,,,30.0,30.0,,Val-de-Marne,48.800,2.4323,Saint-Remi,2,Parisis,Synopsis.php?id=MAISON-A,Maisons-Alfort 
,48.0,50.0,,,,15.0,,,,,,,,,,,,,,Aisne,49.499,3.2871,Saint-Médard,3,Soissonais,Synopsis.php?id=PONT-SM,Pont-Saint-Mard 
,,,,,,,,,,,,,,,,,,,,Yvelines,48.948,2.1452,Saint-Nicolas,4,Parisis,Synopsis.php?id=MAISON-L,Maisons-Lafitte 
,,,,,,,,,,,,50.0,25.0,50.0,,,,,,Ardennes,49.405,4.8790,Saint-Jean-Baptiste,3,Reimois,Synopsis.php?id=BRIQUENA,Briquenay 
,,,,,43.0,,,18.0,12.0,12.0,28.0,,110.0,48.0,30.0,,,,,Aisne,49.306,3.5058,Notre-Dame-de-l'Assomption,1,Soissonais,Synopsis.php?id=LESGES,Lesges 
,,,,,,,,,,,,,,,,,,,,Aisne,49.357,3.7609,Saint-Nicolas,4,Soissonais,Synopsis.php?id=MEURIVAL,Meurival 
,,,,,,,,,,,,,,,,,,,,Aisne,49.466,3.1558,Saint-Christophe,4,Soissonais,Synopsis.php?id=VASSENS,Vassens 
,,,,,,,,,,,,,,,,,,,,Val-d'Oise,49.139,1.7182,Saint-Martin,4,Beauvaisis,Synopsis.php?id=OMERVILL,Omerville 
,,,,,,,,,,,,,,,,,,,,Aisne,49.352,3.4886,Saint-Rupert,4,Soissonais,Synopsis.php?id=VASSENY,Vasseny 
,,,,,,,25.0,,,,,,,,,,,,,Essonne,48.393,2.3062,Saint-Martin,3,Gâtinais,Synopsis.php?id=VALPUISE,Valpuiseaux 
,,,,,,,,,,,,,,,,,,,,Eure-et-Loir,48.261,1.7496,Saint-Pierre,4,Perche,Synopsis.php?id=YMONVILL,Ymonville 
,,,,,,,,,,,,,,,,,,,,Essonne,48.678,2.5604,Saint-Sulpice,4,Parisis,Synopsis.php?id=VARENNES,Varennes-Jarcy 
,,,,,,,,,,,,,,,,,,,,Oise,49.491,2.6370,Saint-Martin,4,Noyonnais,Synopsis.php?id=MOYENNEV,Moyenneville 
,,,,,,,,,,,,,,,,22.0,,,,Seine-et-Marne,48.664,2.5692,Saint-Vincent,3,Parisis,Synopsis.php?id=COMBS-V,Combs-la-Ville 
,,,,,,,,,,32.0,,,,,,,,,,Marne,49.066,4.2083,Saint-Martin,3,Châlonais,Synopsis.php?id=ISSE,Isse 
,,,,,,34.0,,,,,,,,,,,,,,Oise,49.367,2.7439,Saint-Martin,3,Noyonnais,Synopsis.php?id=MEUX,"Meux, Le "
,,,,,,,,,,,,,,,,,,,,Marne,48.644,4.5886,Saint-Antoine,4,Outliers,Synopsis.php?id=ARZILLIE,Arzillieres-Neuville 
,,,,,,,,,,,,,,,,,,,,Oise,49.209,2.6995,Saint-Jean-Baptiste,4,Senlisis,Synopsis.php?id=MONTEPIL,Montepilloy 
,,,,,,,,,,,,,,,,,,,,Somme,49.723,2.3426,Saint-Denis,4,Outliers,Synopsis.php?id=CHAUSSOY,Chaussoy-Epagny 
,30.0,,,,,24.0,35.0,25.0,,,,,,,,,,,,Aisne,49.562,3.6270,Saint-Jean-de-Jerusalem,1,Laonnois,Synopsis.php?id=LAON-J,Laon 
,,,,,,,,,,,,,,,,,,,,Loiret,48.181,2.1127,Saint-Pierre-ès-Liens,4,Gâtinais,Synopsis.php?id=GRENEVIL,Greneville-en-Beauce 
,,,,,,,,,,,,,,,,,,,,Marne,49.294,4.1203,Saint-Symphorien,4,Reimois,Synopsis.php?id=WITRY-R,Witry-les-Reims 
,,,,,,,,240.0,200.0,200.0,233.0,235.0,304.0,48.0,,,,,,Aisne,49.562,3.6122,Saint-Martin,1,Laonnois,Synopsis.php?id=LAON-M,Laon 
,,,,,,,,,,,,,,,,,,,,Aisne,49.687,3.6670,Saint-Jean-Baptiste,4,Laonnois,Synopsis.php?id=MORTIERS,Mortiers 
,,,,,,,,,,,,,,,70.0,22.0,51.0,,,Val-d'Oise,49.094,2.0952,Notre-Dame-de-l'Assomption,3,Vexin,Synopsis.php?id=LIVILLIE,Livilliers 
,,,,,,,,,,,,,,,,,,,,Aisne,49.202,3.5378,Saint-Martin,4,Soissonais,Synopsis.php?id=SERINGES,Seringes 
,,,,,,,,,,,,37.0,,,,,,,,Aisne,49.556,3.6166,Saint-Vincent,3,Laonnois,Synopsis.php?id=LAON-V,Laon 
,,,,,,,,,,,,,,,,,,,,Marne,49.338,3.8338,Saint-Remi,4,Soissonais,Synopsis.php?id=BOUVANCO,Bouvancourt 
,,,,,,,,,,,,,,,63.0,34.0,,,,Seine-et-Marne,48.475,3.1280,Saints-Pierre-et-Paul,2,Provinois,Synopsis.php?id=DONTILLY,Dontilly 
,,,,40.0,,,,,18.0,10.0,,20.0,,,,,,,,Aisne,49.187,3.2885,Saints-Crépin-et-Crépinien,4,Soissonais,Synopsis.php?id=VICHEL,Vichel 
,35.0,13.0,,,,,,30.0,,,,,,,,,,,,Val-d'Oise,49.094,1.7892,Notre-Dame,3,Meulanois,Synopsis.php?id=ARTHIES,Arthies 
,,,,,,,,,,,,,,,,,,,,Marne,48.788,3.4976,Notre-Dame-de-l'Assomption,4,Brie,Synopsis.php?id=MONCETZ,Moncetz 
,,,,,,,,,,,,,,,,,,,,Oise,49.409,2.2532,Saints-Gervais-et-Protais,4,Beauvaisis,Synopsis.php?id=BRESLES,Bresles 
,,,,,,,,,,,,,,,,,,,,Marne,48.798,4.6269,Saint-Lumier,4,Outliers,Synopsis.php?id=S-LUMIER,Saint-Lumier-en-Champagne 
,,,,,,,,,,,,48.0,70.0,,,,,,,Aisne,49.482,3.9161,Saint-Remi,3,Reimois,Synopsis.php?id=AMIFONTA,Amifontaine 
,,,,,,,,,,,,,,,,,,,,Loiret,48.175,2.2704,Saint-Aignan,4,Gâtinais,Synopsis.php?id=BONDAROY,Bondaroy 
,,,,,,,,,,,,,,,,,,,,Eure-et-Loir,48.278,1.9436,Saint-Denis,4,Perche,Synopsis.php?id=ROUVRA-D,Rouvray-Saint-Denis 
,,,,,,,,,,,,,,,,,,,,Eure-et-Loir,48.257,1.5673,Saints-Pierre-et-Paul,4,Perche,Synopsis.php?id=ROUVRA-F,Rouvray-Saint-Florentin 
,35.0,,,,,,,,,,,,,,,,,,,Oise,49.354,2.5427,Saint-Germain,2,Therain,Synopsis.php?id=SACY-GD,Sacy-le-Grand 
,,,,,,,,,,,,,,,,,,,,Seine-et-Marne,48.365,2.9851,Saint-Georges,4,Yonne,Synopsis.php?id=CANNES-E,Cannes-Ecluse 
,,,,,,,,,,35.0,,48.0,13.0,,,,,,,Aisne,49.230,3.6380,Saint-Pierre,2,Soissonais,Synopsis.php?id=DRAVEGNY,Dravegny 
,,,,,,,,,,33.0,104.0,30.0,32.0,43.0,25.0,,,,,Yvelines,48.881,2.0780,Saint-Étienne,2,Parisis,Synopsis.php?id=MAREIL-M,Mareil-Marly 
,,,,,,,,,,,,,,,,,,,,Marne,49.240,3.8234,Saint-Didier,4,Reimois,Synopsis.php?id=TRESLON,Treslon 
,,,,,,,,,,,,,,,,,,,,Oise,49.387,2.7765,Saints-Pierre-et-Paul,4,Noyonnais,Synopsis.php?id=JAUX,Jaux 
,,,,,,,,20.0,36.0,40.0,,80.0,60.0,,,24.0,35.0,,,Oise,49.102,2.5845,Saint-Martin,2,Senlisis,Synopsis.php?id=PLAILLY,Plailly 
,,,,,,,,,,,20.0,50.0,70.0,,,,,,,Aisne,49.216,3.6433,Saint-Jean-Baptiste,2,Soissonais,Synopsis.php?id=COHAN,Cohan 
,,,,,,,,,,,,,,,,,,,,Marne,48.747,4.3115,Notre-Dame,4,Châlonais,Synopsis.php?id=SOUDE-ND,Soude-Notre-Dame 
,,,46.0,,,,,,,42.0,,,,,,,,,,Oise,49.176,1.9026,Saint-Étienne,3,Vexin,Synopsis.php?id=BOUCONVI,Bouconvillers 
,,,,,,,,,,,,,40.0,24.0,,,,,,Oise,49.201,2.1198,Saint-Martin,3,Vexin,Synopsis.php?id=AMBLAINV,Amblainville 
,,,,,,,,,,,,,,,,,,,,Loiret,48.054,2.4955,Saint-Martin,4,Gâtinais,Synopsis.php?id=JURANVIL,Juranville 
,,,,,,,,,,,,,,,,,,,,Eure-et-Loir,48.151,1.4185,Saint-Maur,4,Perche,Synopsis.php?id=S-MAUR-L,Saint-Maur-sur-le-Loir 
,,,8.0,,,,4.0,,4.0,62.0,14.0,12.0,16.0,,,25.0,30.0,,,Aisne,49.001,3.3661,Saint-Félix,2,Marne,Synopsis.php?id=AZY-M,Azy-sur-Marne 
,,,,,20.0,16.0,48.0,,,,,,,,,,,,,Loiret,48.162,2.2100,Saints-Gervais-et-Protais,3,Gâtinais,Synopsis.php?id=PITHIV-V,Pithiviers-le-Vieil 
,,,,,,,,,20.0,32.0,30.0,,,,,,25.0,30.0,,Val-de-Marne,48.812,2.4725,Saint-Nicolas,2,Parisis,Synopsis.php?id=S-MAUR-F,Saint-Maur-des-Fosses 
,,,,,,,,,,,,,,,,,,,,Seine-et-Marne,48.758,3.0487,Saint-Martin,4,Brie,Synopsis.php?id=SAINTS,Saints 
,,,,,,,,,,,,,,,,,,,,Loiret,48.143,2.7699,Saint-Étienne,4,Gâtinais,Synopsis.php?id=DORDIVES,Dordives 
,,,,,,,,,,,,,,,,,,,,Loiret,48.034,2.7923,Saint-Martin,4,Yonne,Synopsis.php?id=PAUCOURT,Paucourt 
,,,,,,,,,,57.0,,,,,,,,,,Aisne,49.452,3.1823,Saint-Denis,2,Soissonais,Synopsis.php?id=MORSAIN,Morsain 
,,,,,,,,,,,,,,,,,,,,Aisne,49.635,3.6508,Saint-Martin,4,Laonnois,Synopsis.php?id=BARENT-B,Barenton-Bugny 
,,,,,,,,,,,,,,,,,,,,Marne,49.113,4.0317,Sainte-Croix,4,Châlonais,Synopsis.php?id=GERMAINE,Germaine 
,,,,,,,,,,34.0,,,,,30.0,,,,,Oise,49.125,2.6979,Saint-Martin,3,Senlisis,Synopsis.php?id=ERMENONV,Ermenonville 
,,,,,,,,,,,,,,,,,,,,Loiret,48.011,2.8949,Saint-Pierre,2,Yonne,Synopsis.php?id=SELLE-H,"Selle-en-Hermoy, La "
,,,,,,,,,,,,,,,,,,,,Aisne,49.671,3.6802,Saint-Martin,4,Laonnois,Synopsis.php?id=BARENT-S,Barenton-sur-Serre 
,,,,,,,,,,,,,,,,,,,,Eure-et-Loir,48.396,1.9445,Saint-Martin,4,Perche,Synopsis.php?id=GOMMERVI,Gommerville 
,,,,,,,,,,,,,,,,,,,,Seine-et-Marne,48.479,3.1981,Saint-Ferréol,4,Provinois,Synopsis.php?id=PAROY,Paroy 
,,,,,,,,,,,,,,,,,,,,Marne,49.249,4.2164,Saint-Laurent,4,Reimois,Synopsis.php?id=BEINE-N,Beine-Nauroy 
,,,,,,,,,,10.0,,,56.0,32.0,,,24.0,,,Yvelines,48.950,1.9227,Saint-Martin,3,Meulanois,Synopsis.php?id=ECQUEVIL,Ecquevilly 
,,29.0,,,,,68.0,,,,,,,,,,,,,Oise,49.285,2.7025,Saint-Martin,1,Senlisis,Synopsis.php?id=NOEL-M,Noel-Saint-Martin 
,,,,,,,,,,,,,,,,,,,,Loiret,47.891,2.0250,Saint-Pierre-et-Germain,4,Outliers,Synopsis.php?id=CHECY,Checy 
,,,,,,,,,,,,,,,,,,,,Aisne,49.422,3.3710,Saint-Brice,4,Soissonais,Synopsis.php?id=BRAYE-C,Braye-sous-Clamecy 
,,,,,,,,,,,,,,,,,,,,Aisne,49.312,3.0420,Notre-Dame-de-l'Assomption,4,Soissonais,Synopsis.php?id=TAILLEFO,Taillefontaine 
,,,,,,,40.0,63.0,34.0,32.0,,,72.0,58.0,53.0,56.0,,,,Yvelines,48.863,2.1403,Notre-Dame-de-l'Assomption,1,Parisis,Synopsis.php?id=BOUGIVAL,Bougival 
,,,,,,,,,,,,,,,,,,,,Oise,49.385,2.1796,Saint-Séverin,4,Beauvaisis,Synopsis.php?id=MERLEMON,Merlemont 
,,,,,,,,,,,,,,,42.0,,,,,Seine-et-Marne,48.675,2.6970,Sainte-Geneviève,3,Brie,Synopsis.php?id=COUBERT,Coubert 
,,,,,,,,,,,,,,,,,,,,Sarthe,47.968,0.1553,Saint-Jacques,4,Outliers,Synopsis.php?id=ALLONNES,Allonnes 
,,,,,,,,,,,,,,,,,,,,Seine-et-Marne,48.970,3.2369,Saint-Pons,4,Marne,Synopsis.php?id=CITRY,Citry 
,,,,,,,,,,,,,,,,,,,,Seine-et-Marne,48.318,2.5046,Saint-Martin,4,Gâtinais,Synopsis.php?id=BOISSY-C,Boissy-aux-Cailles 
,,,,,,,,,,,,,,,96.0,32.0,,,,Val-d'Oise,49.077,2.0313,Saint-André,1,Vexin,Synopsis.php?id=BOISSY-A,Boissy-lAillerie 
,,,,,,,,,,,,,,,76.0,45.0,,,,Ardennes,49.433,4.0524,Saint-Jean-Baptiste,3,Reimois,Synopsis.php?id=BRIENNE,Brienne-sur-Aisne 
,,,,,,,,,,,,,,,,,,,,Oise,49.083,2.8666,Saint-Pierre,4,Senlisis,Synopsis.php?id=BREGY,Bregy 
,,,,,,,,,,,,,,,,,,,,Seine-et-Marne,48.583,2.8980,Saint-Pierre,4,Provinois,Synopsis.php?id=LADY,Lady 
,,,,,,,,,,,130.0,220.0,220.0,360.0,200.0,300.0,120.0,100.0,,Aisne,49.380,3.3254,Saints-Gervais-et-Protais,1,Soissonais,Synopsis.php?id=SOISSONS,Soissons 
,,,,,,90.0,100.0,100.0,,28.0,,,,,,,36.0,100.0,,Seine-St-Denis,48.935,2.3598,Saint-Denis,1,Parisis,Synopsis.php?id=S-DEN-FR,Saint-Denis-en-France 
,,,,,,,,,,,,,,,,,,,,Aisne,49.578,3.5457,Saint-Martin,4,Laonnois,Synopsis.php?id=CERNAY-B,Cernay-les-Bucy 
,,,,,,,,,,,,,,,,,,,,Marne,48.779,4.7455,Saint-Maurice,4,Outliers,Synopsis.php?id=HEILTZ-E,Heiltz-leveque 
,,,,,,,,,,,,,,,,,,,,Oise,49.238,2.8847,Saint-Denis,4,Senlisis,Synopsis.php?id=CRPY-V-D,Crepy-en-Valois 
,,,,,,,,28.0,,,,35.0,,,,,,,,Oise,49.167,2.3596,Saint-Vaast,2,Therain,Synopsis.php?id=BORAN-O,Boran-sur-Oise 
,,,,,,,,,,,,,,,,,,,,Oise,49.236,2.8835,Saint-Aubin in the Chateau,4,Senlisis,Synopsis.php?id=CRPY-V-C,Crepy-en-Valois 
,,,,,,,,,,,,,,,,,,,,Marne,48.793,4.8129,Saint-Maurice,4,Outliers,Synopsis.php?id=HEILTZ-M,Heiltz-le-Maurupt 
,,,,,,,,,,,,,,,,,,,,Yvelines,48.673,1.9714,Saint-Brice,4,Perche,Synopsis.php?id=CERNAY-V,Cernay-la-Ville 
,,,,,,,46.0,17.0,,40.0,,,,,,,,,,Marne,49.264,4.1048,Saint-Martin,1,Reimois,Synopsis.php?id=CERNAY-R,Cernay-les-Reims 
,,,,,,,,,,,,,,,100.0,101.0,40.0,52.0,,Oise,49.234,2.8898,Saint-Thomas,2,Senlisis,Synopsis.php?id=CRPY-V-T,Crepy-en-Valois 
,,,,,,,33.0,,,,,,,,,,,,,Eure,49.330,1.7180,Saint-Denis,3,Beauvaisis,Synopsis.php?id=S-DEN-FM,Saint-Denis-le-Ferment 
,,,,,,,,,,70.0,30.0,22.0,,,,,20.0,,,Aisne,49.084,3.2123,Saint-Sulpice-et-Antoine,1,Soissonais,Synopsis.php?id=VEUILLY,Veuilly-la-Poterie 
,,,,,,,,,,,,,,,,,,,,Aisne,49.338,3.1559,Saint-Médard,4,Soissonais,Synopsis.php?id=COEUVRES,Coeuvres-et-Valsery 
,,,,,,,,12.0,,120.0,,,,,,,,,,Essonne,48.712,2.2404,Saint-Martin,2,Parisis,Synopsis.php?id=PALAISEA,Palaiseau 
,,,,,,,,,,,,,,,,,,,,Val-de-Marne,48.821,2.4720,Notre-Dame,4,Parisis,Synopsis.php?id=JOINVILL,Joinville-le-Pont 
,,,,,,,,,,,,,,,,,,,,Aisne,49.447,3.3715,Sainte-Cécile,4,Soissonais,Synopsis.php?id=TERNY-S,Terny-Sorny 
,,,,,,,,,,203.0,18.0,96.0,,,,,,,,Marne,48.959,4.0092,Saint-Laurent,2,Châlonais,Synopsis.php?id=OGER,Oger 
,,,,,,,,,,,,,,,,,,,,Aisne,49.415,4.0295,Saint-Remi,4,Reimois,Synopsis.php?id=PIGNICOU,Pignicourt 
,,,,,,,,,,,,,,,,,,,,Marne,49.182,3.8013,Saint-Laurent,4,Reimois,Synopsis.php?id=VILLE-T,Ville-en-Tardenois 
,,,,,,,,,,,,,,,,,,,,Essonne,48.501,1.9579,Notre-Dame-de-l'Assomption,4,Perche,Synopsis.php?id=CORBREUS,Corbreuse 
,,,,,,,,,,,,,,,,,,,,Loiret,48.072,2.5490,Saint-Germain,4,Gâtinais,Synopsis.php?id=CORBEILL,Corbeilles-en-Gatinais 
,,,,,,,,,,,,,,,,,,,,Aisne,49.373,3.4519,Saint-Remi,4,Soissonais,Synopsis.php?id=SERMOISE,Sermoise 
,,,,,,,,,,,,,,,,,,,,Marne,49.204,3.9295,Saint-Lie,4,Reimois,Synopsis.php?id=VILLE-D,Ville-Dommange 
,,,,,,,,,,,,,,,,,,,,Marne,48.961,3.6779,Saint-Martin,2,Marne,Synopsis.php?id=VILLE-O,"Ville-sous-Orbais, La "
,,,,,,,,,,,,,,,,,,,,Yvelines,48.911,1.7891,Saint-Pierre-ès-Liens,4,Meulanois,Synopsis.php?id=JUMEAUVI,Jumeauville 
,,,,,,,,,21.0,16.0,,,,,30.0,,,,,Seine-et-Marne,48.398,2.9979,Saint-Germain-de-Paris,3,Provinois,Synopsis.php?id=S-GRM-LV,Saint-Germain-Laval 
,,,,,,,,,,,,,,,,,170.0,,,Yvelines,48.897,2.0959,Saint-Germain,1,Parisis,Synopsis.php?id=S-GRM-LY,Saint-Germain-en-Laye 
,,,,,,,,,,,,,,,,,,,,Oise,49.488,3.0084,Saint-Éloi,4,Noyonnais,Synopsis.php?id=TRACY-V,Tracy-le-Val 
,,,,,,,,,,,,,,44.0,108.0,80.0,50.0,,,Val-d'Oise,49.030,2.2277,Notre-Dame-de-l'Assomption,1,Parisis,Synopsis.php?id=TAVERNY,Taverny 
,,,,,,,,,,,,,,,,,,,,Seine-St-Denis,48.929,2.3873,Saint-Lucien,4,Parisis,Synopsis.php?id=COURNEUV,"Courneuve, La "
,,,,,,,,,,,,,,,,,,,,Marne,48.879,4.0048,Saint-Memmie,4,Châlonais,Synopsis.php?id=BERGERES,Bergeres-les-Vertus 
,,,,,,,,,,,,,,,,,,,,Marne,48.786,4.9113,Notre-Dame,4,Châlonais,Synopsis.php?id=SERMAIZE,Sermaize-les-Bains 
,,,,,,,,,,,,,,,,,,,,Marne,48.739,4.3144,Sainte-Croix,4,Châlonais,Synopsis.php?id=SOUDE,Soude 
,,,,,,,,,,,,,,,,,,,,Val-d'Oise,49.066,1.8667,Sainte-Claire,4,Meulanois,Synopsis.php?id=FREMAINV,Fremainville 
,,,,,,,,,,,,,,,,,,,,Marne,48.977,4.4704,Notre-Dame,4,Châlonais,Synopsis.php?id=LEPINE,Lepine 
,,,,,,,10.0,,,,,,,34.0,,,,,,Marne,48.895,3.6486,Saint-Léger,2,Marne,Synopsis.php?id=JANVILLI,Janvilliers 
,,,,,,,,,,83.0,,,46.0,,,,,,,Aisne,49.295,3.4923,Saint-Martin,3,Soissonais,Synopsis.php?id=CUIRY-H,Cuiry-Housse 
,,25.0,,,,,22.0,,,,,,,,,,,,,Hauts-de-Seine,48.765,2.2797,Saint-Germain-l'Auxerrois,2,Parisis,Synopsis.php?id=CHATENAY,Chatenay-Malabry 
,,,,,0.0,,,,,,,,,,,,,,,Paris,48.861,2.3552,Saint-Aignan,3,Parisis,Synopsis.php?id=PARIS-A,Paris 
,,,,,,,,,,,,,24.0,14.0,,,,,,Oise,49.365,3.0641,Saint-Étienne,3,Soissonais,Synopsis.php?id=HAUTEFON,Hautefontaine 
,,,,,,,,,,,,,51.0,,,,75.0,,,Loiret,48.293,2.4177,Saint-Martin,2,Gâtinais,Synopsis.php?id=MALESHER,Malesherbes 
,,,,,,,,,,,,,,,,,,,,Marne,49.185,3.9476,Saint-Crépin,4,Reimois,Synopsis.php?id=ECUEIL,Ecueil 
,,,,,,,,,,,,,,,,,,,,Eure-et-Loir,48.206,1.8284,Saint-Fiacre,4,Gâtinais,Synopsis.php?id=MERVILLI,Mervilliers 
,,,,,,,,,,,,,,,,,,,,Essonne,48.708,2.3896,Saint-Denis,4,Parisis,Synopsis.php?id=ATHIS-M,Athis-Mons 
,,,,,,,,,,,,,,,,,,,,Yonne,48.132,3.4876,Saint-Martin,4,Outliers,Synopsis.php?id=CERISIER,Cerisiers 
,,,,,,,50.0,,,,,,,,,,,,,Oise,49.260,2.7132,Saint-Nicolas,2,Senlisis,Synopsis.php?id=RARAY,Raray 
,,,,,,,,80.0,50.0,80.0,10.0,40.0,,35.0,,,,224.0,,Oise,49.443,1.7805,Saint-Germer,1,Beauvaisis,Synopsis.php?id=S-GERMER,Saint-Germer-de-Fly 
,,,,,,,,,,,,,,,,,,,,Oise,49.151,2.9846,Saints-Maurice-et-Léonard,4,Soissonais,Synopsis.php?id=ANTILLY,Antilly 
,,,,,,,,,,,,,,,,,,,,Marne,49.239,4.4127,Saint-Laurent,4,Reimois,Synopsis.php?id=DONTRIEN,Dontrien 
,,,,,,,,,,,,,,,,,,,,Seine-et-Marne,48.233,2.6252,Saint-Loup-de-Sens,4,Gâtinais,Synopsis.php?id=CHATENOY,Chatenoy 
,,,,,,,,,,,,,,,,,,,,Aisne,49.223,3.1774,Saint-Pierre,4,Soissonais,Synopsis.php?id=FAVEROLL,Faverolles 
,,,,,,,,,,,,,,,,,,,,Val-d'Oise,49.039,2.1047,Saint-Ouen,4,Vexin,Synopsis.php?id=S-OUEN-A,Saint-Ouen-lAumone 
,,,,,,,,,,,,,,,,,,,,Marne,49.271,4.1529,Saint-Martin,4,Reimois,Synopsis.php?id=BERRU,Berru 
,,,,,,,,,,,,,,,,,,,,Marne,48.634,4.7149,Saint-Georges,4,Outliers,Synopsis.php?id=LARZICOU,Larzicourt 
,,,,,,,,,26.0,,,,,26.0,,,,,,Oise,49.305,2.5390,Saint-Rieul,3,Therain,Synopsis.php?id=BRENOUIL,Brenouille 
,,,,,,,,,25.0,,,,,,,,,,,Marne,49.304,3.9653,Chapter House,3,Reimois,Synopsis.php?id=S-THRY-C,Saint-Thierry 
,,,,,,,,,,,,,60.0,,,,,,,Essonne,48.594,2.2553,Saint-Germain-d'Auxerre,2,Parisis,Synopsis.php?id=S-GRM-AR,Saint-Germain-les-Arpajon 
,,,,,,,25.0,15.0,,,,,20.0,,,45.0,,,,Aisne,49.102,3.2981,Notre-Dame-de-l'Assomption,2,Soissonais,Synopsis.php?id=MONTHIER,Monthiers 
,,,,,80.0,100.0,30.0,,,,,,24.0,,,,,,,Marne,49.306,3.9674,Saint-Hilaire,2,Reimois,Synopsis.php?id=S-THRY-H,Saint-Thierry 
,38.0,,,,,,,,,,,,,,,,,,,Oise,49.322,3.0118,Saint-Aubin,2,Soissonais,Synopsis.php?id=RETHEUIL,Retheuil 
,,,,,,,,,,,,,,,,,,,,Aisne,48.871,3.4467,Saint-Jean-Baptiste,4,Marne,Synopsis.php?id=VENDIERE,Vendieres 
,,,,,36.0,,,,,12.0,,21.0,20.0,,107.0,,,,,Seine-et-Marne,48.615,3.4030,Saint-Pierre,2,Provinois,Synopsis.php?id=BEAUCHER,Beauchery 
,,,,,,,,,,,,,,,,,,,,Yvelines,48.704,1.9853,Saint-Pierre,4,Perche,Synopsis.php?id=DAMPIE-Y,Dampierre-en-Yvelines 
,,,,,,,,,,,,,,,,,,,,Aisne,49.362,3.4625,Saint-Martin,4,Soissonais,Synopsis.php?id=CIRY-S,Ciry-Salsogne 
,,,,,,,,,,,,,,,,,,,,Marne,49.044,4.0865,Saint-Helain,4,Châlonais,Synopsis.php?id=BISSEUIL,Bisseuil 
,,,,,,,,,,,,,,,,,,,,Aisne,48.976,3.2850,Saint-Martin,4,Marne,Synopsis.php?id=CHARLY-M,Charly-sur-Marne 
,,,,,,,,50.0,52.0,,,20.0,55.0,,,95.0,,,,Yvelines,48.849,1.9174,Saint-Martin,3,Meulanois,Synopsis.php?id=THIVERVA,Thiverval-Grignon 
,,,,,,,15.0,,,,,,,,,,,,,Eure,49.255,1.2069,Notre-Dame,3,Outliers,Synopsis.php?id=VAUDREUL,"Vaudreuil, Le "
,,15.0,35.0,,19.0,,,,,40.0,,69.0,60.0,28.0,18.0,,,,,Aisne,49.568,3.6340,Saint-Jean-Baptiste,3,Laonnois,Synopsis.php?id=VAUX-LA,Vaux-sous-Laon 
,,,,,,,,,,,,,,,,,,,,Marne,49.098,3.8847,Saint-Maur,4,Marne,Synopsis.php?id=FLEURY-R,Fleury-la-Riviere 
,,,,,,,,,,,30.0,43.0,72.0,30.0,30.0,33.0,,,,Val-d'Oise,49.131,2.0508,Saint-Caprais,3,Vexin,Synopsis.php?id=GRISY-P,Grisy-les-Platres 
,,,,,,,,40.0,,,,,,22.0,61.0,36.0,18.0,,,Seine-et-Marne,48.505,2.7941,Sainte-Madeleine,3,Provinois,Synopsis.php?id=CHATLT-B,"Chatelet-en-Brie, Le "
,,,,,,,,,,,,,,,,,,,,Marne,48.719,4.0286,Saint-Sébastien,4,Châlonais,Synopsis.php?id=EUVY,Euvy 
,,,,,,,,,,,,,,,,,,,,Aisne,49.300,3.4254,Saint-Jacques,4,Soissonais,Synopsis.php?id=NAMPTEUI,Nampteuil-sous-Muret 
,,,20.0,35.0,25.0,30.0,,,,10.0,,,,50.0,5.0,,,,,Seine-et-Marne,48.446,2.5483,Notre-Dame-de-l'Assomption,1,Gâtinais,Synopsis.php?id=FLEURY-B,Fleury-en-Biere 
,,,,,,,40.0,,,,,21.0,40.0,,,,,,,Marne,48.910,4.6269,Saint-Memmie,3,Châlonais,Synopsis.php?id=COUPEVIL,Coupeville 
,,,,,,,,,,,,,,,,,,,,Oise,49.343,2.4121,Saint-Martin,4,Therain,Synopsis.php?id=NEUILL-C,Neuilly-sous-Clermont 
,,,,,,,,,,,53.0,42.0,,,,24.0,28.0,28.0,,Aisne,49.060,3.2276,Sainte-Madeleine,2,Soissonais,Synopsis.php?id=MARIGNY,Marigny-en-Orxois 
,,,,,,,30.0,,,,,,,,,,177.0,60.0,,Aisne,49.170,3.2602,Saint-Front,2,Soissonais,Synopsis.php?id=NEUILL-F,Neuilly-Saint-Front 
,,,,,,,,,,,,,,,,,160.0,130.0,,Aisne,49.375,3.3247,Saint-Jean-des-Vignes,2,Soissonais,Synopsis.php?id=SOISS-JV,Soissons 
,,,,,,,,,,,,,,,,,,,,Seine-et-Marne,48.536,3.3487,Saint-Martin,4,Provinois,Synopsis.php?id=SOURDUN,Sourdun 
,,,24.0,,,,,,,,,,,,,,,,,Oise,49.203,1.7374,Saint-Josse,2,Beauvaisis,Synopsis.php?id=PARNES,Parnes 
,,,,,,,,,,,,40.0,43.0,,,,,,,Aisne,49.705,3.6846,Saint-Quentin,3,Laonnois,Synopsis.php?id=DERCY,Dercy 
,,,,,,,,,,,,,,,,,,,,Marne,49.195,3.9484,Saint-Remi,4,Reimois,Synopsis.php?id=SACY,Sacy 
,,,,,,,,,,,,,,,,,,,,Aisne,49.446,3.2622,Saint-Léger,4,Soissonais,Synopsis.php?id=BIEUXY,Bieuxy 
,,,,,,,,,,,,,46.0,20.0,38.0,60.0,,,,Seine-et-Marne,48.562,2.7353,Saint-Martin,3,Parisis,Synopsis.php?id=MOISENAY,Moisenay 
,,,,,,,,,,,,,20.0,,,,,,,Aisne,49.373,3.7390,Saint-Martin,3,Soissonais,Synopsis.php?id=MAIZY,Maizy 
,,,,,,,,,,,,,22.0,,,,,,,Marne,49.109,4.2274,Saint-Laurent,3,Châlonais,Synopsis.php?id=BILLY-G,Billy-le-Grand 
,,,,,,,,,,,,,,,,,,,,Marne,49.181,3.7255,Saint-Remi,4,Soissonais,Synopsis.php?id=AOUGNY,Aougny 
,,,,,,,,,,,,,,,,,,,,Loiret,48.108,2.6910,Saint-Jean-Baptiste,4,Gâtinais,Synopsis.php?id=PREFONTA,Prefontaines 
,,,,,,,,,,,,,,,,,,,,Marne,49.152,4.1528,Saint-Basle,4,Reimois,Synopsis.php?id=CAUREL-L,Caurel-les-Lavannes 
,,,,,,,,,,,,,,,,,,,,Eure-et-Loir,48.034,1.5092,Sainte-Vierge,4,Perche,Synopsis.php?id=VILLAMPU,Villampuy 
,,,,,,,,,,,,,,,,,,,,Marne,48.694,4.8034,Saint-Vrain,4,Outliers,Synopsis.php?id=S-VRAN-V,Saint-Vrain 
,,,,,,,,,,,,,,,83.0,60.0,,40.0,,Eure-et-Loir,48.736,1.3684,Saint-Pierre,2,Perche,Synopsis.php?id=DREUX,Dreux 
,,,,,,,72.0,,29.0,,,,,,,18.0,,,,Aisne,49.188,3.4421,Saint-Remi,2,Soissonais,Synopsis.php?id=BRUYER-F,Bruyeres-sur-Fere 
,,,,,,,,,,,,,,,,,,,,Marne,48.663,4.6363,Saint-Louvent,4,Outliers,Synopsis.php?id=CLOYES-M,Cloyes-sur-Marne 
,,,34.0,20.0,,100.0,55.0,88.0,,18.0,25.0,,,,,,,,,Aisne,49.524,3.6640,La Visitation,1,Laonnois,Synopsis.php?id=BRUYER-M,Bruyeres-et-Montberault 
,,28.0,,18.0,18.0,,140.0,18.0,,,13.0,45.0,,,,,35.0,,,Val-d'Oise,49.156,2.3318,Saint-Vivien,2,Therain,Synopsis.php?id=BRUYER-O,Bruyeres-sur-Oise 
,,,,,,,,,,58.0,28.0,,,35.0,,,,,,Essonne,48.542,2.3338,Saint-Caprais,1,Parisis,Synopsis.php?id=S-VRAN-C,Saint-Vrain 
,,,,,,67.0,,,,,,,,,,,,,,Val-d'Oise,48.977,2.2039,Saint-Martin,2,Parisis,Synopsis.php?id=CORMEI-P,Cormeilles-en-Parisis 
,,,,,,,,,,40.0,,,,,,,,,,Oise,49.165,2.6951,Saint-Geneviève,3,Senlisis,Synopsis.php?id=MONTLOGN,Montlognon 
,,,,,,,46.0,,,0.0,,,,,,,,,,Seine-et-Marne,48.516,2.5476,Notre-Dame-de-Corbeil,2,Parisis,Synopsis.php?id=PRINGY,Pringy 
,32.0,,,50.0,,,,,,,,45.0,50.0,50.0,,,50.0,40.0,,Val-d'Oise,49.115,2.0178,Saint-Martin,2,Vexin,Synopsis.php?id=CORMEI-V,Cormeilles-en-Vexin 
,,,,,,,,,,,,,,,,,,,,Marne,48.795,3.5295,Saint-Denis,4,Marne,Synopsis.php?id=MORSAINS,Morsains 
,,,,,,,,,,,,,,,,,,,,Hauts-de-Seine,48.780,2.2662,Sainte-Marie-Madeleine,4,Parisis,Synopsis.php?id=PLESSI-R,"Plessis-Robinson, Le "
,,,,,,,,,,,,,,,,,,,,Oise,49.356,2.2453,Saint-Vincent,4,Beauvaisis,Synopsis.php?id=HERMES,Hermes 
,,,,,,,,,,,,,,,,,,,,C�te-d'Or,47.490,4.3326,Notre-Dame,4,Outliers,Synopsis.php?id=SEMUR-A,Semur-en-Auxois 
,,,,,,,,,,,,,35.0,,24.0,,,,,Seine-et-Marne,48.353,2.8206,Saint-Remi,3,Provinois,Synopsis.php?id=ECUELLES,Ecuelles 
,,,,,,,,,,,,,,,,,,,,Yonne,48.351,3.3066,Saint-Jean-Baptiste,4,Yonne,Synopsis.php?id=PLESSI-J,Plessis-Saint-Jean 
,,,,,,,,,,,,,,,,,,,,Yonne,48.366,3.3573,Notre-Dame-de-l'Assomption,4,Yonne,Synopsis.php?id=PLESSI-M,Plessis du Mee 
,,,,,,,,,,,,,,,,,,,,Yvelines,48.724,1.7670,Saint-Jean-Baptiste,4,Perche,Synopsis.php?id=S-LEGR-Y,Saint-Leger-en-Yvelines 
,,,,,,,,,,,,,,,,,,,,Marne,49.350,4.2217,Saint-Martin,4,Reimois,Synopsis.php?id=WARMERIV,Warmeriville 
,,,,,,,,,,,,,,,,,,,,Yonne,47.909,3.7146,Notre-Dame,1,Outliers,Synopsis.php?id=PONTIGNY,Pontigny 
,,,,,,,,,,60.0,22.0,,,,,,,,,Aisne,49.413,3.2799,Saint-Maurice,2,Soissonais,Synopsis.php?id=VAUXREZI,Vauxrezis 
,,,,,,,,,,,,,,22.0,,,,,,Eure-et-Loir,48.411,1.7395,Saint-Léger,3,Perche,Synopsis.php?id=S-LEGR-A,Saint-Leger-des-Aubees 
,40.0,,,,,,,,,,,,,,,,,,,Oise,49.480,2.9551,Saint-Léger,2,Noyonnais,Synopsis.php?id=S-LEGR-B,Saint-Leger-aux-Bois 
,,,,,,,,,32.0,,,,,,,,,,,Seine-et-Marne,48.196,2.6579,La Nativité,2,Gâtinais,Synopsis.php?id=BOUGLIGN,Bougligny 
,,,,,,,,,,,,,,,,,,,,Aisne,49.513,3.1542,Saint-Pierre,4,Soissonais,Synopsis.php?id=BLERANCO,Blerancourt 
,,,,,,,,,,,,,,,,,,,,Aisne,49.354,3.6847,Saint-Remi,4,Soissonais,Synopsis.php?id=SERVAL,Serval 
,,,,,,,,,,,,,,,,,,,,Essonne,48.671,2.3238,Saints-Leu-et-Gilles,4,Parisis,Synopsis.php?id=EPINAY-O,Epinay-sur-Orge 
,,,,,,,,,,,,,,,22.0,,,,,Val-d'Oise,49.064,2.2335,Saint-Sulpice,3,Vexin,Synopsis.php?id=VILLI-AD,Villiers-Adam 
,,,,,,,,,,,,,,,,,,,,Marne,48.994,4.2431,Saint-Georges,4,Châlonais,Synopsis.php?id=MATOUGUE,Matougues 
,,,,,,,,,,,,,,,,,,,,Aisne,49.521,3.7530,Saint-Pierre,4,Laonnois,Synopsis.php?id=FESTIEUX,Festieux 
,,,,,,,,,,30.0,,,,27.0,,,,,,Aisne,49.371,3.1682,Saint-Bandry,2,Soissonais,Synopsis.php?id=S-BANDRY,Saint-Bandry 
,,,,,,,,,,48.0,30.0,110.0,12.0,10.0,,,25.0,,,Aisne,49.518,3.6552,Saint-Jean-Baptiste,1,Laonnois,Synopsis.php?id=VORGES,Vorges 
,,,,,,,,,,,,,,15.0,,55.0,16.0,,,Seine-et-Marne,48.875,3.2955,Saint-Martin,2,Brie,Synopsis.php?id=SABLONNI,Sablonnieres 
,,,,,,,,,,,,,,,,,,,,Marne,48.846,3.6489,Saint-Martin,4,Marne,Synopsis.php?id=BSSY-REP,Boissy-le-Repos 
,,31.0,,,,16.0,,32.0,,,,25.0,,22.0,,,,,,Marne,48.929,4.2147,Saint-Symphorien,2,Châlonais,Synopsis.php?id=THIBIE,Thibie 
,,,,,,,,,,,,,,,,,,,,Seine-et-Marne,48.334,2.7465,Saints-Pierre-et-Paul,4,Gâtinais,Synopsis.php?id=MONTI-LO,Montigny-sur-Loing 
,,,,,,,,,,,,,,,,,,,,Seine-et-Marne,48.452,3.0611,Sainte-Geneviève,4,Provinois,Synopsis.php?id=MONTI-LC,Montigny-Lencoup 
,,,,,,,,,,100.0,56.0,,,,,,,,,Aisne,49.371,3.0994,Saint-Martin,1,Soissonais,Synopsis.php?id=MONTI-LG,Montigny-Lengrain 
,,,,,,,,,,,,,,,,,,,,Seine-et-Marne,48.258,2.4363,Saint-Denis,4,Gâtinais,Synopsis.php?id=BOULANCO,Boulancourt 
,,,,,,,,,,,,,,,,,,,,Loiret,48.280,2.1735,Saint-Pierre,2,Gâtinais,Synopsis.php?id=THIGNONV,Thignonville 
,,,,,,,,,,,,,,,,,,,,Marne,49.287,3.8131,Saint-Georges,4,Soissonais,Synopsis.php?id=JONCHERY,Jonchery-sur-Vesle 
,,,,,,,,,,,,,,,,40.0,60.0,,,Eure,49.279,1.7757,Saints-Gervais-et-Protais,1,Beauvaisis,Synopsis.php?id=GISORS,Gisors 
,,,,,,,,,,,,,,,,,,,,Essonne,48.702,2.1354,Saint-Remi,4,Parisis,Synopsis.php?id=GIF-Y,Gif-sur-Yvette 
,,,,,,,,,,,,,,,,,,,,Seine-et-Marne,48.555,3.1073,Saint-Léonard,4,Provinois,Synopsis.php?id=VANVILLE,Vanville 
,,,,,,,,,,,,,,,,,,,,Essonne,48.734,2.2065,Saints-Rigobert-et-Tenestin,4,Parisis,Synopsis.php?id=VAUHALLA,Vauhallan 
,,,,,,,,,,,,,,,,,,,,Marne,49.366,4.1675,Saint-Remy,4,Reimois,Synopsis.php?id=BAZANCOU,Bazancourt 
,,,,,,,,,,,,,,,,,,,,Marne,48.788,4.2772,Saint-Étienne,4,Châlonais,Synopsis.php?id=LETTREE,Lettree 
,,,,,,,,,,,,,,,,,,,,Eure-et-Loir,48.217,1.7036,Saint-Martin,4,Perche,Synopsis.php?id=VIABON,Viabon 
,,,,,,,,,,,,,,,,0.0,0.0,,,Somme,49.894,2.3020,Notre-Dame-de-l'Assomption,1,Outliers,Synopsis.php?id=AMIENS,Amiens 
,,,,,,,,,,,,,23.0,,,,,,,Aisne,49.340,3.6384,La Nativité,3,Soissonais,Synopsis.php?id=VAUXCERE,Vauxcere 
,,,,,,,40.0,,,,,,,,,,,,,Aisne,49.513,3.7269,Saints-Pierre-et-Paul,3,Laonnois,Synopsis.php?id=MONTCHAL,Montchalons 
,,,,,,,,,,,,,,,,,,,,Eure-et-Loir,48.296,1.7769,Saint-Jean-Baptiste,4,Perche,Synopsis.php?id=MOUTIERS,Moutiers-en-Beauce 
,,,,,,46.0,84.0,15.0,,,,,,14.0,,,,,,Yvelines,48.892,1.6315,Sainte-Marie-Madeleine,3,Meulanois,Synopsis.php?id=MONTCHAU,Montchauvet 
,,145.0,26.0,,,8.0,90.0,85.0,80.0,52.0,,,,,53.0,65.0,,,,Paris,48.853,2.3345,Saint-Germain-des-Près,1,Parisis,Synopsis.php?id=PARIS-GP,Paris 
,,,,,,,,,,,,,,,,,,,,Marne,48.952,4.3832,Saint-Memmie,4,Châlonais,Synopsis.php?id=S-MEMMIE,Saint-Memmie 
,,,,,12.0,26.0,,,,,,,,22.0,,,,,,Aisne,49.380,3.6238,Saints-Pierre-et-Paul,2,Soissonais,Synopsis.php?id=VIEL-A,Viel-Arcy 
,,,18.0,,,20.0,,,,,,,,20.0,24.0,,10.0,,,Oise,49.191,2.2181,Saint-Martin,2,Therain,Synopsis.php?id=BELLE-E,Belle-Eglise 
,,25.0,,,,,,,30.0,,,,26.0,,,,,,,Seine-et-Marne,49.074,3.0276,Notre-Dame-de-l'Assomption,1,Soissonais,Synopsis.php?id=MAY-M,May-en-Multien 
,,,,,,,,,,42.0,,,31.0,28.0,,,,37.0,,Essonne,48.636,2.4735,Saint-Martin,3,Parisis,Synopsis.php?id=ETIOLLES,Etiolles 
,,,,,,,,,,,,,,,,,,,,Marne,48.838,4.0272,Saints-Rufin-et-Valère,4,Châlonais,Synopsis.php?id=PIERRE-M,Pierre-Morains 
,,,,,,,,,,,,,,,,,,,,Essonne,48.450,1.9579,Saint-André,4,Perche,Synopsis.php?id=AUTHON-P,Authon-la-Plaine 
,,,,,,,,,,,,,,,,,,,,Marne,49.124,3.6786,Saints-Pierre-et-Paul,4,Marne,Synopsis.php?id=PASSY-G,Passy-Grigny 
,,,,,,,,,,,,,,,,,,,,Essonne,48.364,2.0992,Saints-Gervais-et-Protais,4,Parisis,Synopsis.php?id=GUILLERV,Guillerval 
,,,,,,,,,,,,,,,,,,,,Essonne,48.355,2.2723,Saint-Médard,4,Gâtinais,Synopsis.php?id=MESPUITS,Mespuits 
,,,,,,,,,,,,,,,,,,,,Essonne,48.625,2.1229,Saint-Denis,4,Parisis,Synopsis.php?id=BRIIS-F,Briis-sous-Forges 
,,,,,,,,,,,,,,,,,,,,Yvelines,48.584,1.9902,Notre-Dame-de-l'Assomption,4,Perche,Synopsis.php?id=ROCHEFOR,Rochefort-en-Yvelines 
,,,,,,,,,,,,,,,,,,,,Somme,50.086,2.3931,Saint-Jean-Baptiste,4,Outliers,Synopsis.php?id=BEAUQUES,Beauquesne 
,,,,,,,,,,,,,,,,,,,,Aisne,49.540,3.2537,Saint-Pierre,4,Laonnois,Synopsis.php?id=CHAMPS,Champs 
,,,,,,,,,,,,,,,,,,,,Seine-et-Marne,48.187,2.5480,Notre-Dame-de-l'Assomption,4,Gâtinais,Synopsis.php?id=ARVILLE,Arville 
,,,,,,,,,,,,,,,,,,,,Marne,48.637,4.4151,Saint-Quentin,4,Châlonais,Synopsis.php?id=MEIX-T,"Meix-Tiercelin, Le "
,,,,,,,,,,,,,,,,,,,,Essonne,48.316,2.2802,Saints-Pierre-et-Paul,4,Gâtinais,Synopsis.php?id=BROUY,Brouy 
,,,,,,,,,,,,,,,,,,,,Eure-et-Loir,48.192,1.7359,Saint-Pierre,4,Perche,Synopsis.php?id=GERMIGNO,Germignonville 
,,,,,,,,,,,,,,,,,,,,Oise,49.365,2.2163,Saint-Martin,4,Beauvaisis,Synopsis.php?id=VLRS-S-M,Villers-Saint-Sepulcre 
,,,,,,,,,,,,,,,,,,,,Eure-et-Loir,48.748,1.5233,Saint-Martin,4,Perche,Synopsis.php?id=BROUE,Broue 
,,,,,,,,,,,,,,42.0,,,,,,Seine-et-Marne,49.064,3.1579,Notre-Dame-de-l'Assomption,3,Soissonais,Synopsis.php?id=GERMIGNY,Germigny-sous-Coulombes 
,,,,,,,,,,,,,,,,0.0,0.0,,,Loiret,47.889,2.5144,Notre-Dame,2,Gâtinais,Synopsis.php?id=LORRIS,Lorris 
,,,,,,,,,107.0,18.0,,,,,42.0,,33.0,,,Val-d'Oise,49.095,2.4886,Saint-Étienne,2,Senlisis,Synopsis.php?id=FOSSES,Fosses 
,,,,,,30.0,20.0,,,,,,,,,,,,,Oise,49.290,2.8561,Saint-Remi,3,Senlisis,Synopsis.php?id=ORROUY,Orrouy 
,,,,,,,,,,,,,,,,,,,,Val-d'Oise,49.046,2.1164,Notre-Dame-la-Royale,4,Vexin,Synopsis.php?id=MAUBISSO,Maubisson 
,,,,,,,,,,,,160.0,77.0,,,30.0,,,,Essonne,48.592,2.2479,Saint-Clément,2,Parisis,Synopsis.php?id=ARPAJON,Arpajon 
,,,,,,,,,24.0,30.0,,,,111.0,,,15.0,,,Val-de-Marne,48.791,2.3942,Saint-Germain-de-Paris,1,Parisis,Synopsis.php?id=VITRY-S,Vitry-sur-Seine 
,,,,,,,,,,,,286.0,54.0,,,,,,,Aisne,49.407,3.5992,Notre-Dame-de-l'Assomption,3,Soissonais,Synopsis.php?id=SOUPIR,Soupir 
,,,,,,,,,,,,,,,,,,,,Marne,48.841,4.4619,Saint-Pierre,4,Châlonais,Synopsis.php?id=VITRY-V,Vitry-la-Ville 
,,,,,,,,,,80.0,,15.0,17.0,,,20.0,,,,Essonne,48.335,2.3722,Notre-Dame-de-l'Assomption,2,Gâtinais,Synopsis.php?id=BOIGNEVI,Boigneville 
,,,,,28.0,,,,,,,,,,,,,,,Oise,49.388,2.4330,Saints-Pierre-et-Paul,3,Therain,Synopsis.php?id=FITZ-J,Fitz-James 
,,,,,,,,,,,,,,,,,,,,Essonne,48.373,2.3782,Saint-Martin,2,Gâtinais,Synopsis.php?id=GIRNVL-M,Gironville-sur-Essonne 
,,,,,,,,,,,,,,,,,,,,Essonne,48.612,2.3099,Saint-Pierre,4,Parisis,Synopsis.php?id=BRETIG-O,Bretigny-sur-Orge 
,,,,,,,,,,,,,,,,,,,,Aisne,49.460,3.4516,Saint-Jean-Baptiste,4,Laonnois,Synopsis.php?id=ALLEMANT,Allemant 
,,,35.0,25.0,25.0,,,75.0,,26.0,50.0,44.0,,,,,,,,Val-d'Oise,49.076,2.1054,Saint-Aubin,2,Vexin,Synopsis.php?id=ENNERY,Ennery 
,,,,,,,,,,,,,,,,,,,,Essonne,48.730,2.2734,Sainte-Marie-Madeleine,4,Parisis,Synopsis.php?id=MASSY,Massy 
,,,,13.0,,,,,,,,,,,,,,,,Marne,49.024,4.0534,Saint-Hilaire,4,Châlonais,Synopsis.php?id=OIRY,Oiry 
,,,,,,,,,,,,26.0,,15.0,33.0,,,,,Seine-et-Marne,48.729,2.8798,Saint-Germain-d'Auxerre,4,Brie,Synopsis.php?id=MARLES-B,Marles-en-Brie 
,,,,,,,,,,,,,,,,,,,,Oise,49.295,2.3371,Saint-Léger,4,Therain,Synopsis.php?id=BALAGNY,Balagny-sur-Therain 
,,46.0,,,,30.0,15.0,,,,,,,,24.0,,10.0,,,Oise,49.452,2.2525,Saint-Quentin,3,Beauvaisis,Synopsis.php?id=FAY-Q,"Fay-Saint-Quentin, Le "
,,,,,60.0,,,,,,,20.0,15.0,,,,,,,Oise,49.243,1.9355,Saint-Vaast,3,Vexin,Synopsis.php?id=FAY-E,Fay-les-Etangs 
,,,,,,,,,,,,,,,,,,,,Aisne,49.083,3.3390,Saint-Leu,4,Soissonais,Synopsis.php?id=ETREPILL,Etrepilly 
,,,,,,,,,42.0,,14.0,10.0,,,,,,10.0,,Aisne,49.087,3.2797,Saint-Barthélémy,3,Soissonais,Synopsis.php?id=TORCY-V,Torcy-en-Valois 
,,,,,,,,,,,,,,,,,,,,Loiret,47.927,2.1391,Notre-Dame,4,Outliers,Synopsis.php?id=FAY-L,Fay-au-Loges 
,,,,,,,,,,,,,,,,,,,,Seine-et-Marne,48.232,2.6842,Saint-Sulpice,4,Gâtinais,Synopsis.php?id=FAY-N,Fay-les-Nemours 
,,,,,,,,,,,,69.0,,,104.0,,,,,Oise,49.147,2.6865,Notre-Dame,2,Senlisis,Synopsis.php?id=CHAALIS,Chaalis 
,,,,,,,,,,,,,,,,30.0,22.0,,,Yonne,48.294,3.2239,Cour Notre-Dame,3,Yonne,Synopsis.php?id=MICHE-ND,Michery 
,,,,,,,,,,,,,,,,,,,,Seine-et-Marne,48.261,2.5594,Notre-Dame-de-l'Assomption,4,Gâtinais,Synopsis.php?id=GUERCHEV,Guercheville 
,,,,,,,,,,,,29.0,40.0,60.0,80.0,22.0,,,,Essonne,48.493,2.1900,Saint-Étienne,3,Parisis,Synopsis.php?id=ETRECHY,Etrechy 
,,,,,,,,,,,,,190.0,149.0,,,,,,Marne,49.017,4.0707,Saint-Quentin,3,Châlonais,Synopsis.php?id=PLIVOT,Plivot 
,,,,,,,,,,,,,,,,,,,,Yonne,48.156,3.4409,Notre-Dame,4,Yonne,Synopsis.php?id=VAUMORT,Vaumort 
,,,,,,,,,,,,35.0,15.0,,15.0,,,,,Yvelines,48.944,1.7348,Saint-Martin,3,Meulanois,Synopsis.php?id=GUERVILL,Guerville 
,,,,,,,,,,,,,,,,,,,,Val-d'Oise,49.008,2.3891,Saint-Didier,4,Parisis,Synopsis.php?id=VILLI-BL,Villiers-le-Bel 
,,,,,,,,,,,,,,,,,,,,Aisne,49.262,3.6159,Ferme des Dames,4,Soissonais,Synopsis.php?id=CHRY-C-D,Chery-Chartreuve 
,,,,,,,,,,,,,,,,,,,,Seine-et-Marne,48.494,2.5991,Saint-Eloi,4,Gâtinais,Synopsis.php?id=VILLI-BI,Villiers-en-Biere 
,,,,,,,,,43.0,56.0,25.0,,,,,,,,,Marne,49.236,3.6923,Notre-Dame,2,Soissonais,Synopsis.php?id=ARCIS-ND,Arcis-le-Ponsart 
,,,,,,,,,,,,,,30.0,,,,,,Aisne,49.262,3.6159,Ferme de La Tuillerie,4,Soissonais,Synopsis.php?id=CHRY-C-T,Chery-Chartreuve 
,,,,,,,,,,,,,,,,,,,,Marne,48.803,4.2609,Saint-Étienne,4,Châlonais,Synopsis.php?id=BUSSY-L,Bussy-Lettree 
,,15.0,,,,,,,,,,,10.0,,,50.0,5.0,,,Seine-et-Marne,48.560,3.2195,Saint-Léger,3,Provinois,Synopsis.php?id=VULAINES,Vulaines-les-Provins 
,,,,,,,,,,,,,,,,,,,,Oise,49.217,2.0143,Saint-Étienne,4,Vexin,Synopsis.php?id=MONTS,Monts 
,,,,,,,,,,,,,,,,,,,,Marne,49.253,4.0349,Chapter House,4,Reimois,Synopsis.php?id=REIMS-CH,Reims 
,,,,,,,,,,,,,,,,,,,,Marne,48.910,3.7320,Saints-Pierre-et-Paul,4,Marne,Synopsis.php?id=CHPL-O,"Chapelle-sous-Orbais, La "
,,,,,,,,,,,,,,,,,134.0,80.0,,Seine-et-Marne,48.855,2.9117,Notre-Dame-de-l'Assomption,2,Brie,Synopsis.php?id=CHPL-C,"Chapelle-sur-Crecy, La "
,,,,,,,,,,,,,42.0,90.0,65.0,15.0,45.0,19.0,,Seine-et-Marne,48.701,3.2451,Saint-Denis,2,Brie,Synopsis.php?id=BETON-B,Beton-Bazoches 
,,,,,,,,,,26.0,,,,,77.0,,,,,Seine-et-Marne,48.550,2.9005,Saint-Martin,3,Provinois,Synopsis.php?id=CHPL-G,"Chapelle-Gauthier, La "
,,,,,,,,,,,,,,,,,,,,Oise,49.259,2.9314,Saint-Martin,4,Senlisis,Synopsis.php?id=FEIGNEUX,Feigneux 
,,,,,,,,,,,,,,,,,,,,Marne,49.152,4.1139,Saint-Calixte,4,Reimois,Synopsis.php?id=MAILLY-C,Mailly-Champagne 
,,,,,,,,,,42.0,,,,,,,,,,Oise,49.223,1.8756,Saints-Gilles-et-Leu,3,Vexin,Synopsis.php?id=BOUBIERS,Boubiers 
,,,,,,,,,37.0,,,,,,,,,,,Aisne,49.547,3.4103,Saint-Norbert,3,Laonnois,Synopsis.php?id=PREMONTR,Premontre 
,,,,,,,,,,,,,,,,,,,,Seine-et-Marne,48.315,2.5683,Sainte-Geneviève,4,Gâtinais,Synopsis.php?id=CHPL-R,"Chapelle-la-Reine, La "
,,,,,,,,,,,,,,,,,,,,Seine-et-Marne,48.238,2.9003,Sainte-Anne,4,Yonne,Synopsis.php?id=LORREZ-B,Lorrez-le-Bocage-Preaux 
,,,,,,,,,,,,,,,,,,,,Loiret,48.112,2.1108,Saint-Aignan,4,Gâtinais,Synopsis.php?id=MONTIGNY,Montigny 
,,,,,37.0,,,,45.0,,,,,,,,,,,Eure-et-Loir,48.059,1.4121,Saint-Pierre,3,Perche,Synopsis.php?id=LUTZ-D,Lutz-en-Dunois 
,,,,,,,,,,,,,212.0,,,,,,,Aisne,49.023,3.6343,La Nativité,2,Marne,Synopsis.php?id=CHPL-MH,"Chapelle-Monthodon, La "
,,,,,,,,,,35.0,20.0,29.0,,,,,,,,Seine-et-Marne,48.775,3.3914,Saints-Antoine-et-Sulpice,3,Brie,Synopsis.php?id=CHPL-MT,"Chapelle-Moutils, La "
,,,,,,,,,,,,,,,67.0,,,,,Marne,48.904,4.5862,La Nativité-de-Saint-Jean,3,Châlonais,Synopsis.php?id=S-JEAN-M,Saint-Jean-sur-Moivre 
,,,,,,,,,,,,,,,,,,,,Loiret,47.903,1.9641,Saint-Jean-Baptiste,4,Outliers,Synopsis.php?id=S-JEAN-B,Saint-Jean-de-Braye 
,,,,,,,,,,,,,,,,,,,,Aisne,49.033,3.4196,Notre-Dame-de-l'Assomption,4,Marne,Synopsis.php?id=ETAMPE-M,Etampes-sur-Marne 
,,,,,,,,,,,,,,,,,,,,Oise,49.326,2.2838,Ferme Saint-Jean-du-Vivier,2,Therain,Synopsis.php?id=S-JEAN-V,Mouy 
,,,,,,,,,80.0,,,,,,21.0,,16.0,,,Loiret,48.186,2.4962,Saint-Loup,2,Gâtinais,Synopsis.php?id=BROMEILL,Bromeilles 
,,25.0,,,,20.0,,,,86.0,,,72.0,,,,,,,Oise,49.299,2.6400,Saint-Gervais,1,Senlisis,Synopsis.php?id=PONTPT-G,Pontpoint 
,,,47.0,,80.0,,,180.0,50.0,50.0,60.0,130.0,130.0,190.0,190.0,40.0,60.0,,,Oise,49.218,2.4219,Saint-Nicolas,1,Therain,Synopsis.php?id=S-LEU-E,Saint-Leu-dEsserent 
,,,,,,,,,,,,,,,,,,,,Marne,49.285,4.0588,Saint-Sébastien,4,Reimois,Synopsis.php?id=BETHENY,Betheny 
,,,,,,,,,,,,,,,,,,,,Aisne,49.338,3.6728,Sainte-Geneviève,4,Soissonais,Synopsis.php?id=BLANZY-F,Blanzy-les-Fismes 
,,,,,,,,,,40.0,,,190.0,187.0,134.0,107.0,,,,Marne,49.254,4.0286,Saint-Jacques,1,Reimois,Synopsis.php?id=REIMS-J,Reims 
,,,,,,,,,,,,22.0,30.0,,,,,,,Essonne,48.391,2.0271,Saint-Thomas-à-Becket,3,Parisis,Synopsis.php?id=MOULINEU,Moulineux 
,,,,,,,,,,,,,,,,,,,,Val-d'Oise,49.065,2.1900,Saint-Denis,4,Vexin,Synopsis.php?id=MERY-O,Mery-sur-Oise 
45.0,,,,,40.0,,,,,,,35.0,,,,,,,,Oise,49.296,2.6563,Saint-Pierre,2,Senlisis,Synopsis.php?id=PONTPT-P,Pontpoint 
,,56.0,,,,,,,,,,,80.0,45.0,40.0,,,,,Marne,49.076,3.6394,Saint-Hippolyte,2,Marne,Synopsis.php?id=DORMANS,Dormans 
,,,,,,,,,,,,,,,,,,,,Eure-et-Loir,48.172,1.6218,Saint-Sébastien,4,Perche,Synopsis.php?id=BAIGNOLE,Baignolet 
,,,,,,,,,84.0,42.0,,,,,,,,,,Yvelines,48.992,1.8604,Saint-Michel,3,Meulanois,Synopsis.php?id=JUZIERS,Juziers 
,,,,,,,,,,,,,,,,,,,,Aisne,49.552,3.7697,Saint-Germain,4,Laonnois,Synopsis.php?id=COUCY-E,Coucy-les-Eppes 
,,,,,,,,,,,,,,,,,,,,Aisne,49.518,3.3252,Saint-Sauveur,4,Laonnois,Synopsis.php?id=COUCY-C,Coucy-le-Chateau 
,,,,,33.0,22.0,20.0,,22.0,14.0,,,30.0,,,,6.0,,,Marne,49.349,4.0694,Saints-Pierre-et-Paul,1,Reimois,Synopsis.php?id=BOURGOGN,Bourgogne 
,,,,,,,,,,,,,,,,,,,,Yvelines,48.886,2.0624,Sainte-Croix,4,Parisis,Synopsis.php?id=FOURQUEU,Fourqueux 
,,,,,,,40.0,,,,,,,,,,,,,Aisne,49.532,3.3285,Saint-Remi,4,Laonnois,Synopsis.php?id=COUCY-V,Coucy-la-Ville 
,,,,,,,,,,,,,,,,,,,,Yonne,48.031,3.2957,Saint-Julien,4,Yonne,Synopsis.php?id=S-JULI-S,Saint-Julien-de-Sault 
,,,,,,,,,,,,,,,,,,,,Aisne,49.391,3.7918,Saint-Jean-Baptiste,4,Soissonais,Synopsis.php?id=CHAUDARD,Chaudardes 
,,,,,,,,,,,,,,,,,,,,Val-d'Oise,49.121,1.6944,Saints-Crépin-et-Crépinien,4,Beauvaisis,Synopsis.php?id=CHAUSSY,Chaussy 
,,,,20.0,,24.0,,,,,,,,,,,,,,Oise,49.390,2.1410,Saint-Lucien,3,Beauvaisis,Synopsis.php?id=WARLUIS,Warluis 
,,,,,,,,,,,,,,,,,,,,Aisne,49.405,3.5706,Saint-Laurent,4,Soissonais,Synopsis.php?id=CHAVONNE,Chavonne 
,,,,,,,,,,,,,,,,,,,,Loiret,48.121,2.1143,Saint-Pierre,4,Gâtinais,Synopsis.php?id=ATTRAY,Attray 
,,,,,,,,,,,,,,,,,,,,Aisne,49.178,3.4735,Saint-Georges,4,Soissonais,Synopsis.php?id=VLNV-F,Villeneuve-sur-Fere 
,,,,,,,,,,,,,,,,,,,,Seine-et-Marne,48.226,2.9370,Saint-Gengoue,4,Yonne,Synopsis.php?id=VAUX-LU,Vaux-sur-Lunain 
,,,,,,55.0,45.0,,,,,33.0,,,,,,,,Aisne,49.161,3.4221,Notre-Dame-de-l'Assomption,2,Soissonais,Synopsis.php?id=COINCY,Coincy 
,,,,,,,,,80.0,,,,,,,,,,,Seine-et-Marne,48.528,3.3131,Saint-Martin,2,Provinois,Synopsis.php?id=CHALTR-P,Chalautre-la-Petite 
,80.0,15.0,,20.0,,,,,,22.0,,,,,,,,,,Oise,49.298,2.9221,Saint-Denis,1,Senlisis,Synopsis.php?id=MORIENVA,Morienval 
,,,,,,,,,,,,,,,,,,,,Marne,48.770,3.4542,Saint-Loup-de-Troyes,4,Brie,Synopsis.php?id=VLNV-L,Villeneuve-la-Lionne 
,,,,,,,,,,,,,,,,,,,,Val-d'Oise,49.067,1.9680,Saint-Martin,2,Vexin,Synopsis.php?id=VLNV-M,"Villeneuve Saint-Martin, La "
,,,,,,,,,,50.0,,20.0,60.0,,20.0,,,,,Oise,49.274,2.6891,Saint-Barthélémy,2,Senlisis,Synopsis.php?id=VLNV-V,Villeneuve-sur-Verberie 
,,,,,,,,,,,,,,,,,,,,Seine-et-Marne,48.541,3.4602,Saint-Georges,4,Provinois,Synopsis.php?id=CHALTR-G,Chalautre-la-Grande 
,,,,,,,,,,,,,,,,65.0,14.0,,,Oise,49.155,3.0625,Saint-Laurent,1,Soissonais,Synopsis.php?id=VLNV-T,"Villeneuve-sous-Thury, La "
,,,,,,,,,,,,,,,,,,,,Val-de-Marne,48.735,2.4083,Saints-Pierre-et-Paul,4,Parisis,Synopsis.php?id=VLNV-R,Villeneuve-le-Roi 
,,,,,,,,,,,,,,,,,,,,Loiret,48.205,2.2265,Saint-Benoît,4,Gâtinais,Synopsis.php?id=BOUZONVI,Bouzonville-en-Beauce 
,,,,,,600.0,250.0,250.0,450.0,450.0,400.0,120.0,250.0,100.0,45.0,,,,,Yonne,48.198,3.2841,Saint-Étienne,1,Yonne,Synopsis.php?id=SENS,Sens 
,,,,,,,,,,,,,,,,,,,,Eure,49.008,0.5296,Saint-Martin,4,Outliers,Synopsis.php?id=BROGLIE,Broglie 
,,,,,,,,,,,,,,,,,,,,Yonne,48.082,3.2948,Notre-Dame-de-l'Assomption,4,Yonne,Synopsis.php?id=VLNV-Y,Villeneuve-sur-Yonne 
,,,,,,,,,,,,,,,,,,,,Aisne,49.057,3.2792,Saint-Remi,4,Soissonais,Synopsis.php?id=LUCY-B,Lucy-le-Bocage 
,,,,,,,,,,,,,,,,,,,,Marne,49.140,4.3660,Saint-Laurent,4,Châlonais,Synopsis.php?id=MOURMELO,Mourmelon-le-Grand 
,,,,,,,,,,,,,,,,,,,,Marne,48.780,4.4015,Notre-Dame-de-l'Assomption,4,Châlonais,Synopsis.php?id=FAUX-V,Faux-Vesigneul 
,,,24.0,,27.0,15.0,,13.0,,,,,,,,,,,,Val-d'Oise,49.129,2.2934,Saint-Vaast,3,Therain,Synopsis.php?id=NOINTEL,Nointel 
,,,,,,,,,,37.0,,,18.0,,24.0,,,,,Aube,48.416,3.4509,Saints-Gervais-et-Protais,3,Provinois,Synopsis.php?id=TRAINEL,Trainel 
,,,,,,,,,,,,,,,,,,,,Aisne,49.462,3.8238,Saint-Marcoul,4,Laonnois,Synopsis.php?id=CORBENY,Corbeny 
,,,,,,58.0,18.0,,,,,,,,,84.0,50.0,,,Seine-et-Marne,48.423,2.9979,Saint-Laurent,3,Provinois,Synopsis.php?id=LAVAL-B,Laval-en-Brie 
,,20.0,56.0,,,,,,,,,,,,,,,,,Oise,49.429,2.1070,Notre-Dame,3,Beauvaisis,Synopsis.php?id=MARISSEL,Marissel 
,,,,,,,,,,,,35.0,,,22.0,20.0,40.0,,,Aisne,49.501,3.5961,Saint-Nicolas,2,Laonnois,Synopsis.php?id=LAVAL-L,Laval-en-Laonnois 
,,,,,,,,,,,,,,,,,,,,Loiret,48.069,2.4298,Saint-Martin,4,Gâtinais,Synopsis.php?id=BEAUNE-R,Beaune-la-Rolande 
,,,,,,,,,,,,,,,,,,,,Eure,49.093,1.4864,Notre-Dame,4,Beauvaisis,Synopsis.php?id=VERNON,Vernon 
,,,,,,,,,,38.0,,,,,,,,,,Aisne,49.201,3.0450,Saint-Pierre,2,Soissonais,Synopsis.php?id=BOURSONN,Boursonne 
,,,,,,,,,,,,,,,,,,,,Oise,49.458,2.5662,Saint-Martin,4,Noyonnais,Synopsis.php?id=CRESSONS,Cressonsacq 
,,,,,,,,,,,43.0,20.0,,,,,,,,Seine-et-Marne,49.037,3.0573,Saint-Étienne,3,Soissonais,Synopsis.php?id=OCQUERRE,Ocquerre 
,,,,,,,73.0,,,,,,,,,,,,,Seine-St-Denis,48.940,2.4972,Saint-Sulpice,1,Parisis,Synopsis.php?id=AULNAY-B,Aulnay-sous-Bois 
,,,,,,,,,,,,,,,,,,,,Yonne,48.217,3.2873,Saint-Clément,4,Yonne,Synopsis.php?id=S-CLEMNT,Saint-Clement 
,,66.0,,,37.0,,,18.0,12.0,,,,,,,,,32.0,,Val-d'Oise,49.112,2.4286,Saints-Côme-et-Damien,1,Senlisis,Synopsis.php?id=LUZARCHE,Luzarches 
,,,,,,,,,,,,,,,,,,,,Val-d'Oise,49.126,1.8897,Saint-Martin,4,Vexin,Synopsis.php?id=COMMENY,Commeny 
,,,,,,,,,,,,,,,,,,,,Yonne,48.263,3.0731,Saint-Loup-de-Sens,4,Yonne,Synopsis.php?id=VILLETHI,Villethierry 
,,,,,,,,,20.0,,,,13.0,,,,,,,Oise,49.187,1.8325,Saint-Denis,2,Vexin,Synopsis.php?id=SERANS,Serans 
,,,,,,,,,,,,,90.0,,,,,,,Loiret,48.228,2.4272,Saint-Étienne,3,Gâtinais,Synopsis.php?id=BRIARRES,Briarres-sur-Essonne 
,,,,,,,19.0,,40.0,35.0,,55.0,,,34.0,12.0,,,,Marne,49.076,4.1746,Saint-Réol,1,Châlonais,Synopsis.php?id=AMBONNAY,Ambonnay 
,,,,,,,,,,,,,,,,,,,,Yonne,48.223,3.2242,Saint-Urbain,4,Yonne,Synopsis.php?id=NAILLY,Nailly 
,,,,,,,,,,,,,,,,,,,,Essonne,48.312,1.9983,Saints-Pierre-et-Eutrope,4,Gâtinais,Synopsis.php?id=ANGERVIL,Angerville 
,,,,33.0,15.0,,,15.0,,,,,,,,,75.0,,,Oise,49.234,2.7286,Notre-Dame,3,Senlisis,Synopsis.php?id=RULLY,Rully 
,,,,,,,,,,,,,,,,,,,,Loiret,48.193,2.1143,Saint-Félix,4,Gâtinais,Synopsis.php?id=GUIGNONV,Guignonville 
,,,,,,,,,,,,,,35.0,70.0,36.0,60.0,,,Aube,48.589,3.5542,Saints-Pierre-et-Paul,2,Provinois,Synopsis.php?id=VILLNX-G,Villenauxe-la-Grande 
,,,,,,,,,,,,,,60.0,180.0,,32.0,,,Oise,49.347,2.9056,Notre-Dame-et-Saint-Jean-Baptiste,1,Senlisis,Synopsis.php?id=S-JN-B-N,Saint-Jean-aux-Bois 
,,,,,,,,,,44.0,,,,,,35.0,,,,Aisne,49.181,3.2263,Saint-Martin,2,Soissonais,Synopsis.php?id=MARIZY-M,Marizy-Saint-Mard 
,,,,,,,,,,,,,,,60.0,40.0,,,,Loiret,47.906,2.8069,Saint-Léger,3,Gâtinais,Synopsis.php?id=MONTCRES,Montcresson 
,,,,,,,,,,,,,,,,,,,,Val-d'Oise,49.084,1.8736,Sainte-Lucien,4,Meulanois,Synopsis.php?id=AVERNES,Avernes 
,,,,,,,,,,,,,,,,,,,,Oise,49.349,2.8763,Sainte-Périne,4,Senlisis,Synopsis.php?id=S-JN-B-P,Saint-Jean-aux-Bois 
,,,,,,,,,,,,,,,,,,,,Marne,49.222,3.9862,Saint-Martin,4,Reimois,Synopsis.php?id=BEZANNES,Bezannes 
,,,,,,,124.0,,,,,,,66.0,32.0,,32.0,38.0,,Oise,49.314,2.5262,Saint-Martin,3,Therain,Synopsis.php?id=CINQUEUX,Cinqueux 
,,,,,,,,,,,,,,,,,,,,Aisne,49.365,3.5406,Saint-Pierre,4,Soissonais,Synopsis.php?id=BRENELLE,Brenelle 
,,,,,,,,,,,,,,,,,,,,Seine-et-Marne,48.418,2.9618,Saint-Baudel,4,Provinois,Synopsis.php?id=FORGES,Forges 
,,,,,,,,,,,,,,,,,,,,Val-de-Marne,48.813,2.3447,Saint-Saturnin,4,Parisis,Synopsis.php?id=GENTILLY,Gentilly 
,,,,,,,,,28.0,22.0,,,,,,,,,,Seine-Maritime,49.420,1.0579,Chapelle Saint-Julien,2,Outliers,Synopsis.php?id=PETIT-Q,"Petit-Quevilly, Le "
,,,,,,,20.0,20.0,18.0,,,,35.0,,,30.0,,,,Aisne,49.102,3.1605,Saints-Crépin-et-Crépinien,2,Soissonais,Synopsis.php?id=BRUMETZ,Brumetz 
,,,,,,34.0,13.0,,,26.0,,,14.0,,,19.0,,,,Aisne,49.358,3.6531,Saint-Macre,3,Soissonais,Synopsis.php?id=LONGUEVA,Longueval-Barbonval 
,,,,,,40.0,,,,,,,,,24.0,,,,,Marne,48.839,4.2006,Saints-Pierre-et-Paul,2,Châlonais,Synopsis.php?id=SOUDRON,Soudron 
,,,,,,,,,,,25.0,20.0,50.0,20.0,30.0,30.0,40.0,35.0,,Aisne,49.086,3.5524,Saint-Eloi,2,Marne,Synopsis.php?id=BARZY-M,Barzy-sur-Marne 
,,,,,,,,,,,,,,,,,,,,Marne,48.882,3.6152,Saint-Christophe,4,Marne,Synopsis.php?id=VAUCHAMP,Vauchamps 
,,,,,,15.0,25.0,25.0,,,,15.0,,,,,,,,Aisne,49.108,3.3480,Saint-Médard,3,Soissonais,Synopsis.php?id=EPAUX-B,Epaux-Bezu 
,,,,,,,,,,,,,,,,,13.0,,,Seine-et-Marne,48.584,2.7780,Sainte-Marie-Madeleine,3,Parisis,Synopsis.php?id=FOUJU,Fouju 
,,,,,,,,,,29.0,,24.0,,,,,,,,Marne,48.854,3.7641,Saints-Pierre-et-Paul,3,Marne,Synopsis.php?id=BAYE-P,Baye 
,,,,,,,,48.0,,,,77.0,43.0,,,,,,,Aisne,49.514,3.5232,Saint-Pierre,3,Laonnois,Synopsis.php?id=CHAILLEV,Chaillevois 
,,,,,12.0,,,,,,,,,,,,,,,Oise,49.425,2.6454,Saint-Denis,3,Noyonnais,Synopsis.php?id=ESTREES,Estrees-Saint-Denis 
,,,,,,,,,,,,,,,,,,,,Oise,49.656,3.0487,Saint-Quentin,4,Noyonnais,Synopsis.php?id=GUISCARD,Guiscard 
,,,,,,,,,,,,,,,,,,,,Oise,49.107,2.7948,Saints-Pierre-et-Paul,4,Senlisis,Synopsis.php?id=SILLY-L,Silly-le-Long 
,,,,,,,,,,,,,,140.0,265.0,150.0,130.0,70.0,,Aisne,49.030,3.3750,Saint-Ferréol,1,Marne,Synopsis.php?id=ESSOMES,Essomes-sur-Marne 
,,,,,,,,,,,,,,,,,,,,Eure-et-Loir,48.354,1.7747,Saint-Martin,4,Perche,Synopsis.php?id=OUARVILL,Ouarville 
,,,,,,,,,,,,,,,,,,,,Marne,49.383,4.0675,Saint-Firmin,4,Reimois,Synopsis.php?id=AUMENANC,Aumenancourt-le-Grand 
,,,,,,,,,,26.0,,,,46.0,32.0,,,,,Oise,49.256,2.4430,Notre-Dame-de-l'Assomption,2,Therain,Synopsis.php?id=MONTATAI,Montataire 
,,,,,,,,,140.0,140.0,,90.0,100.0,100.0,,,,,,Oise,49.206,2.5859,Notre-Dame-de-l'Assomption,1,Senlisis,Synopsis.php?id=SENLIS,Senlis 
,,,,,,,,,,,,,,,,25.0,15.0,,,Seine-et-Marne,48.637,2.7713,Saint-Martin,1,Brie,Synopsis.php?id=YEBLES,Yebles 
,,,,,,,,,,,,,100.0,100.0,80.0,60.0,,,,Seine-et-Marne,48.284,2.5964,Saint-Mathurin,1,Gâtinais,Synopsis.php?id=LARCHANT,Larchant 
,,,,,,,,,,,,,,,,,,,,Marne,49.165,3.8914,Saint-André,4,Reimois,Synopsis.php?id=MARFAUX,Marfaux 
,,,,,,,,66.0,,,,,,60.0,,52.0,150.0,,,Essonne,48.604,2.4698,Saint-Étienne,2,Parisis,Synopsis.php?id=CORBEI-E,Corbeil-Essonnes 
,,,,,,,,,,,,,,,,,,,,Seine-et-Marne,48.717,3.1703,Saint-Géroche,4,Brie,Synopsis.php?id=DAGNY,Dagny 
,,,,,,,,,,,,,,,,,,,,Loiret,48.243,2.3924,Saint-Eutrope,4,Gâtinais,Synopsis.php?id=LABROSSE,Labrosse 
,,,,,,,,,,,,67.0,36.0,102.0,,,,,,Essonne,48.606,2.4748,Saint-Jean-de-Jerusalem,2,Parisis,Synopsis.php?id=CORBEI-J,Corbeil-Essonnes 
,,,,,,,,,,,89.0,52.0,,,43.0,,,,,Marne,49.151,4.2508,Saint-Basle,2,Châlonais,Synopsis.php?id=SEPT-S,Sept-Saulx 
,,,,,,,47.0,,10.0,204.0,,,40.0,,,50.0,,,,Essonne,48.611,2.4828,Saint-Spire,1,Parisis,Synopsis.php?id=CORBEI-S,Corbeil-Essonnes 
,,,,,,,,,,,,,,,,,,,,Marne,48.749,4.8509,Notre-Dame-de-l'Assomption,4,Outliers,Synopsis.php?id=MAURUPT,Maurupt-le-Montois 
,,,,,,,,,,,49.0,,,,38.0,,,,,Marne,48.893,4.5585,Saint-Laurent,3,Châlonais,Synopsis.php?id=DAMPIE-M,Dampierre-sur-Moivre 
,,,,,,,,,,14.0,12.0,,,,,22.0,,,,Loiret,48.121,2.4339,Saint-Aubin,3,Gâtinais,Synopsis.php?id=SANCY-G,Sancy-Gaubertin 
,,,,,,,,,,,,,,,,,,,,Marne,49.090,4.8955,Notre-Dame-de-l'Assomption,4,Outliers,Synopsis.php?id=STE-MENE,Sainte-Menehould 
,,,,,,,50.0,,,,12.0,12.0,,,6.0,,,,,Oise,49.414,2.1017,Saint-Lazare,4,Beauvaisis,Synopsis.php?id=BEAUV-LZ,Beauvais 
,,,,,,,,,,,,,29.0,,,,,,,Seine-et-Marne,48.287,2.4353,Saint-Maur,3,Gâtinais,Synopsis.php?id=BUTHIERS,Buthiers 
,,,,,,28.0,40.0,24.0,,,,,,,,,,,,Oise,49.175,3.0599,Saint-Martin,3,Soissonais,Synopsis.php?id=AUTH-V-M,Autheuil-en-Valois 
,,,,,,,,,,,,,,,,,,,,Oise,49.171,3.0599,Notre-Dame,4,Soissonais,Synopsis.php?id=AUTH-V-N,Autheuil-en-Valois 
,,,,,30.0,,16.0,,,,,,,,,,,,,Oise,49.348,2.4579,Saint-Martin,3,Therain,Synopsis.php?id=BAILLEVA,Bailleval 
0.0,,,,,0.0,,,,,,,,,,,,,,,Seine-Maritime,49.432,0.8194,Notre-Dame,1,Outliers,Synopsis.php?id=JUMIEG-N,Jumieges 
,,35.0,,54.0,,,,,,,,,,,,,,,,Marne,48.844,3.9119,Saint-Pierre,3,Châlonais,Synopsis.php?id=VERT-GRV,Vert-la-Gravelle 
,,,,,,,,,,,,,,,,,,,,Oise,49.215,2.9953,Sainte-Geneviève,4,Soissonais,Synopsis.php?id=CHAVRES,Chavres 
,,,,,,,,,,,,,,,,,,,,Marne,48.742,4.1978,Saint-Denis,4,Outliers,Synopsis.php?id=SOMMESOU,Sommesous 
