city,country,transport location,coordnorth,coordeast,elevation,tld,loc,lat,lon,loc_frmtd,distance,year,inhab,yr,cargoratio,rivercanal,rivertoll,sqrtsetdens,parliament,manuscipt,commune,bishopric,arcbishopric,seatoll,coastal,riverXcoast,landlocked,atlantic,whitesea,blacksea,northsea,caspian,mediterranean,baltic,ctr
Abbeville,France,river north sea,50.09999847,1.832999945,7,FR,Abbeville,50.105467,1.836833,"Abbeville, France",0.666849828065697,700,0,2,2,1,0,1.11,0,0.01,0,0,0,0,0,0,0,0,0,0,1,0,0,0,fr
Agde,France,river mediterranean,43.32,3.47,1,FR,Agde,43.3088031,3.4768109,"Agde, France",1.3601484484106,700,2,2,2,1,0,1.86,0,0.01,0,1,0,0,0,0,0,0,0,0,0,0,1,0,fr
Agen,France,river north sea,44.20000076,0.633000016,47,FR,Agen,44.203142,0.616363,"Agen, France",1.37483062881851,700,2,2,2,1,0,1.11,0,0.01,0,1,0,0,0,0,0,0,0,0,1,0,0,0,fr
Aire (Aire-sur-l'Adour),France,river north sea,43.7,-0.27,68,FR,Aire-sur-l'Adour,43.700062,-0.262294,"Aire-sur-l'Adour, France",0.621211778285649,700,1,2,2,1,0,1.11,0,0.01,0,1,0,0,0,0,0,0,0,0,1,0,0,0,fr
Aix (Aix-en-Provence),France,river mediterranean,43.53300095,5.433000088,181,FR,Aix ,43.529742,5.447427,"Aix-en-Provence, France",1.22101655076868,700,2,2,2,1,0,1.86,0,0.01,0,0,1,0,0,0,0,0,0,0,0,0,1,0,fr
Ajaccio,France,med,41.92,8.73,1,FR,Ajaccio,41.919229,8.738635,"Ajaccio, France",0.72140675000021,700,1,2,2,0,0,1.86,0,0.01,0,0,0,0,1,0,0,0,0,0,0,0,1,0,fr
Albi,France,river north sea,43.93299866,2.150000095,169,FR,Albi,43.9250853,2.1486413,"Albi, France",0.885252978255588,700,2,2,2,1,0,1.11,0,0.01,0,1,0,0,0,0,0,0,0,0,1,0,0,0,fr
Alencon,France,river north sea,48.43299866,0.082999997,134,FR,Alencon,48.432856,0.091266,"Alençon, France",0.611878826348311,700,0,2,2,1,0,1.11,0,0.01,0,0,0,0,0,0,0,0,0,0,1,0,0,0,fr
Ales (Alès),France,river mediterranean,44.13,4.08,116,FR,Ales ,44.127204,4.083352,"Alès, France",0.410271571248062,700,1,2,2,1,0,1.86,0,0.01,0,0,0,0,0,0,0,0,0,0,0,0,1,0,fr
Ambert,France,land north sea,45.55,3.75,514,FR,Ambert,45.549532,3.739308,"Ambert, France",0.836544242654892,700,0,2,0.3,0,0,1.11,0,0.01,0,0,0,0,0,0,1,0,0,0,1,0,0,0,fr
Amboise,France,river north sea,47.42,0.98,52,FR,Amboise,47.413326,0.984407,"Amboise, France",0.812612069597715,700,0,2,2,1,0,1.11,0,0.01,0,0,0,0,0,0,0,0,0,0,1,0,0,0,fr
Amiens,France,river north sea,49.90000153,2.299999952,25,FR,Amiens,49.894067,2.295753,"Amiens, France",0.726784520897161,700,2,2,2,1,0,1.11,0,0.01,0,1,0,0,0,0,0,0,0,0,1,0,0,0,fr
Anduze,France,river mediterranean,44.05,3.98,117,FR,Anduze,44.053386,3.98651,"30140 Anduze, France",0.643010620520462,700,1,2,2,1,0,1.86,0,0.01,0,0,0,0,0,0,0,0,0,0,0,0,1,0,fr
Angers,France,river north sea,47.46699905,-0.550000012,39,FR,Angers,47.478419,-0.563166,"Angers, France",1.61078859790687,700,2,2,2,1,0,1.11,0,0.01,0,0,0,0,0,0,0,0,0,0,1,0,0,0,fr
Angouleme (Angoulême),France,river north sea,45.65000153,0.150000006,65,FR,Angouleme ,45.648377,0.1562369,"Angoulême, France",0.518567885442683,700,1,2,2,1,0,1.11,0,0.01,0,0,0,0,0,0,0,0,0,0,1,0,0,0,fr
Annecy,France,river mediterranean,45.9,6.12,418,FR,Annecy,45.899247,6.129384,"Annecy, France",0.733013823713873,700,1,2,2,1,0,1.86,0,0.01,0,0,0,0,0,0,0,0,0,0,0,0,1,0,fr
Annonay,France,land mediterranean,45.23,4.67,270,FR,Annonay,45.239403,4.667349,"Annonay, France",1.06470343882839,700,0,2,0.3,0,0,1.86,0,0.01,0,0,0,0,0,0,1,0,0,0,0,0,1,0,fr
Antibes,France,med,43.58,7.1,9,FR,Antibes,43.580418,7.125102,"Antibes, France",2.02800548878152,700,1,2,2,0,0,1.86,0,0.01,0,0,0,0,1,0,0,0,0,0,0,0,1,0,fr
Apt,France,land mediterranean,43.88,5.4,170,FR,Apt,43.876452,5.395439,"Apt, France",0.538061239197849,700,1,2,0.3,0,0,1.86,0,0.01,0,0,0,0,0,0,1,0,0,0,0,0,1,0,fr
Arbois,France,land mediterranean,46.9,5.77,246,FR,Arbois,46.902851,5.772342,"Arbois, France",0.36351241546046,700,0,2,0.3,0,0,1.86,0,0.01,0,0,0,0,0,0,1,0,0,0,0,0,1,0,fr
Argentan,France,land mediterranean,48.75,-0.02,152,FR,Argentan,48.744001,-0.016566,"Argentan, France",0.712868798693728,700,0,2,0.3,0,0,1.86,0,0.01,0,0,0,0,0,0,1,0,0,0,0,0,1,0,fr
Argenteuil,France,river north sea,48.95,2.25,25,FR,Argenteuil,48.9472096,2.2466847,"Argenteuil, France",0.393862412709118,700,1,2,2,1,0,1.11,0,0.01,0,0,0,0,0,0,0,0,0,0,1,0,0,0,fr
Arles,France,river mediterranean,43.66699982,4.632999897,8,FR,Arles,43.676647,4.6277769,"Arles, France",1.15078488632431,700,4,2,2,1,0,1.86,0,0.01,0,1,0,0,0,0,0,0,0,0,0,0,1,0,fr
Armentieres (Armentières),France,river north sea,50.68,2.88,11,FR,Armentieres ,50.691652,2.884218,"Armentières, France",1.32918951754985,700,0,2,2,1,0,1.11,0,0.01,0,0,0,0,0,0,0,0,0,0,1,0,0,0,fr
Arras (Atrecht),France,river north sea,50.28300095,2.782999992,86,FR,Arras ,50.291002,2.777535,"Arras, France",0.970932618318978,700,2,2,2,1,0,1.11,0,0.01,0,0,0,0,0,0,0,0,0,0,1,0,0,0,fr
Aubagne,France,land mediterranean,43.28,5.57,74,FR,Aubagne,43.2926781,5.5676425,"Aubagne, France",1.42022328587946,700,0,2,0.3,0,0,1.86,0,0.01,0,0,0,0,0,0,1,0,0,0,0,0,1,0,fr
Auch,France,river north sea,43.65000153,0.583000004,133,FR,Auch,43.64638,0.586709,"Auch, France",0.50116120925376,700,1,2,2,1,0,1.11,0,0.01,0,1,0,0,0,0,0,0,0,0,1,0,0,0,fr
Aurillac,France,land mediterranean,44.93,2.43,573,FR,Aurillac,44.930953,2.444997,"Aurillac, France",1.18861316154777,700,0,2,0.3,0,0,1.86,0,0.01,0,0,0,0,0,0,1,0,0,0,0,0,1,0,fr
Autun,France,river north sea,46.95,4.3,280,FR,Autun,46.950914,4.301565,"Autun, France",0.156531556832852,700,2,2,2,1,0,1.11,0,0.01,0,1,0,0,0,0,0,0,0,0,1,0,0,0,fr
Auxerre,France,river north sea,47.79999924,3.566999912,100,FR,Auxerre,47.798202,3.573781,"Auxerre, France",0.545836034202023,700,2,2,2,1,0,1.11,0,0.01,0,1,0,0,0,0,0,0,0,0,1,0,0,0,fr
Avallon,France,land north sea,47.48,3.9,163,FR,Avallon,47.48822,3.907722,"Avallon, France",1.08288830287028,700,1,2,0.3,0,0,1.11,0,0.01,0,0,0,0,0,0,1,0,0,0,1,0,0,0,fr
Avignon,France,river mediterranean,43.95000076,4.816999912,21,FR,Avignon,43.949317,4.805528,"Avignon, France",0.924018047539881,700,2,2,2,1,0,1.86,0,0.01,0,1,0,0,0,0,0,0,0,0,0,0,1,0,fr
Avranches,France,river north sea,46.68,-1.37,7,FR,Avranches,48.686843,-1.36166,"50300 Avranches, France",222.962433562064,700,1,2,2,1,0,1.11,0,0.01,0,1,0,0,0,0,0,0,0,0,1,0,0,0,fr
Bagneres de bigorre (Bagnères-de-Bigorre),France,land north sea,43.07,0.15,440,FR,Bagneres de bigorre ,43.065093,0.1491049,"Bagnères-de-Bigorre, France",0.549513018570462,700,1,2,0.3,0,0,1.11,0,0.01,0,0,0,0,0,0,1,0,0,0,1,0,0,0,fr
Bagnols (Bagnols (Puy-de-Dôme)),France,land north sea,45.5,2.62,679,FR,"Bagnols, Puy-de-Dôme, France",45.5010199,2.631136,"Bagnols, France",40.466367902691,700,0,2,0.3,0,0,1.11,0,0.01,0,0,0,0,0,0,1,0,0,0,1,0,0,0,fr
Bailleul (Bailleul (Nord)),France,land north sea,50.73,2.73,14,FR,Bailleul ,50.736482,2.73559,"Bailleul, France",0.821590908544927,700,1,2,0.3,0,0,1.11,0,0.01,0,0,0,0,0,0,1,0,0,0,1,0,0,0,fr
Bar-le-duc,France,river north sea,48.78300095,5.166999817,214,FR,Bar-le-duc,48.773605,5.158238,"55000 Bar-le-Duc, France",1.22673658162182,700,1,2,2,1,0,1.11,0,0.01,0,0,0,0,0,0,0,0,0,0,1,0,0,0,fr
Bastia,France,med,42.70299911,9.449999809,1,FR,Bastia,42.697283,9.450881,"Bastia, France",0.638510221986452,700,0,2,2,0,0,1.86,0,0.01,0,0,0,0,1,0,0,0,0,0,0,0,1,0,fr
Bayeux,France,river north sea,49.26699829,-0.699999988,55,FR,Bayeux,49.276437,-0.70314,"14400 Bayeux, France",1.07358598352578,700,1,2,2,1,0,1.11,0,0.01,0,1,0,0,0,0,0,0,0,0,1,0,0,0,fr
Bayonne,France,river north sea,43.48300171,-1.48300004,6,FR,Bayonne,43.492949,-1.474841,"Bayonne, France",1.28641348985364,700,1,2,2,1,0,1.11,0,0.01,0,0,0,0,0,0,0,0,0,0,1,0,0,0,fr
Beaucaire,France,river mediterranean,43.8,4.63,1,FR,Beaucaire,43.807235,4.644269,"Beaucaire, France",1.40125296999322,700,1,2,2,1,0,1.86,0,0.01,0,0,0,0,0,0,0,0,0,0,0,0,1,0,fr
Beaune,France,land mediterranean,47.03,4.83,193,FR,Beaune,47.02603,4.840004,"Beaune, France",0.879087649025837,700,0,2,0.3,0,0,1.86,0,0.01,0,0,0,0,0,0,1,0,0,0,0,0,1,0,fr
Beauvais,France,river north sea,49.43299866,2.082999945,65,FR,Beauvais,49.4295387,2.0807123,"Beauvais, France",0.418816806502515,700,2,2,2,1,0,1.11,0,0.01,0,0,0,0,0,0,0,0,0,0,1,0,0,0,fr
Bergerac,France,river north sea,44.85,0.48,12,FR,Bergerac,44.853806,0.483392,"Bergerac, France",0.500489775467173,700,1,2,2,1,0,1.11,0,0.01,0,0,0,0,0,0,0,0,0,0,1,0,0,0,fr
Bergues,France,land north sea,50.97,2.43,1,FR,Bergues,50.968519,2.433324,"Bergues, France",0.285704708316637,700,1,2,0.3,0,0,1.11,0,0.01,0,0,0,0,0,0,1,0,0,0,1,0,0,0,fr
Bernay (Bernay (Eure)),France,land north sea,49.1,0.6,87,FR,Bernay ,49.089328,0.597811,"Bernay, France",1.19673335632322,700,0,2,0.3,0,0,1.11,0,0.01,0,0,0,0,0,0,1,0,0,0,1,0,0,0,fr
Besancon,France,river mediterranean,47.25,6.032999992,262,FR,Besancon,47.237829,6.0240539,"Besançon, France",1.512237610515,700,2,2,2,1,0,1.86,0,0.01,0,0,1,0,0,0,0,0,0,0,0,0,1,0,fr
Bethune,France,land north sea,50.53,2.63,18,FR,Bethune,50.531036,2.63926,"Béthune, France",0.666590592977139,700,1,2,0.3,0,0,1.11,0,0.01,0,0,0,0,0,0,1,0,0,0,1,0,0,0,fr
Beziers (Béziers),France,river mediterranean,43.34999847,3.25,53,FR,Beziers ,43.344233,3.215795,"Béziers, France",2.84623552476437,700,1,2,2,1,0,1.86,0,0.01,0,0,0,0,0,0,0,0,0,0,0,0,1,0,fr
Billom,France,land north sea,45.73,3.35,345,FR,Billom,45.723926,3.338973,"Billom, France",1.09171097266436,700,1,2,0.3,0,0,1.11,0,0.01,0,0,0,0,0,0,1,0,0,0,1,0,0,0,fr
Blois,France,river north sea,47.58300018,1.332999945,70,FR,Blois,47.5860921,1.3359475,"Blois, France",0.408849024702202,700,1,2,2,1,0,1.11,0,0.01,0,0,0,0,0,0,0,0,0,0,1,0,0,0,fr
Bonifacio,France,med,41.38,9.17,70,FR,Bonifacio,41.387174,9.159269,"Bonifacio, France",1.19971052510605,700,0,2,2,0,0,1.86,0,0.01,0,0,0,0,1,0,0,0,0,0,0,0,1,0,fr
Bonnetable (Bonnétable),France,land north sea,48.17,0.43,77,FR,Bonnetable ,48.178847,0.424766,"72110 Bonnétable, France",1.05727483349627,700,1,2,0.3,0,0,1.11,0,0.01,0,0,0,0,0,0,1,0,0,0,1,0,0,0,fr
Bordeaux,France,north sea q,44.83300018,-0.566999972,9,FR,Bordeaux,44.837789,-0.57918,"Bordeaux, France",1.1001350847957,700,5,2,1,1,0,1.11,0,0.01,0,1,0,0,1,1,0,0,0,0,1,0,0,0,fr
Boulogne,France,north sea,50.72000122,1.620000005,74,FR,Boulogne,50.725231,1.613334,"Boulogne-sur-Mer, France",0.748058683182065,700,1,2,1,0,0,1.11,0,0.01,0,0,0,0,1,0,0,0,0,0,1,0,0,0,fr
Bourbourg,France,land north sea,50.95,2.2,1,FR,Bourbourg,50.946447,2.196505,"Bourbourg, France",0.465136434248618,700,0,2,0.3,0,0,1.11,0,0.01,0,0,0,0,0,0,1,0,0,0,1,0,0,0,fr
Bourges,France,river north sea,47.08300018,2.400000095,140,FR,Bourges,47.081012,2.398782,"Bourges, France",0.239449276537741,700,2,2,2,1,0,1.11,0,0.01,0,0,1,0,0,0,0,0,0,0,1,0,0,0,fr
Brest,France,north sea,48.40000153,-4.482999802,76,FR,Brest,48.390394,-4.486076,"Brest, France",1.09159219509566,700,1,2,1,0,0,1.11,0,0.01,0,0,0,0,1,0,0,0,0,0,1,0,0,0,fr
Brignoles,France,land mediterranean,43.4,6.07,190,FR,Brignoles,43.40655,6.061187,"Brignoles, France",1.01896184083751,700,1,2,0.3,0,0,1.86,0,0.01,0,0,0,0,0,0,1,0,0,0,0,0,1,0,fr
Brioude,France,land north sea,45.3,3.38,414,FR,Brioude,45.295564,3.386482,"43100 Brioude, France",0.707923339936679,700,1,2,0.3,0,0,1.11,0,0.01,0,0,0,0,0,0,1,0,0,0,1,0,0,0,fr
Brive,France,river north sea,45.17,1.53,102,FR,Brive,45.159555,1.533937,"Brive-la-Gaillarde, France",1.20043849827892,700,1,2,2,1,0,1.11,0,0.01,0,0,0,0,0,0,0,0,0,0,1,0,0,0,fr
Caen,France,river north sea,49.18299866,-0.349999994,5,FR,Caen,49.182863,-0.370679,"Caen, France",1.5076427233036,700,2,2,2,1,0,1.11,0,0.01,0,0,0,0,0,0,0,0,0,0,1,0,0,0,fr
Cahors,France,river north sea,44.43299866,1.432999969,181,FR,Cahors,44.4475229,1.441989,"Cahors, France",1.76423402329599,700,1,2,2,1,0,1.11,0,0.01,0,1,0,0,0,0,0,0,0,0,1,0,0,0,fr
Calais,France,north sea,50.95,1.83,2,FR,Calais,50.95129,1.858686,"Calais, France",2.02091575508736,700,0,2,1,0,0,1.11,0,0.01,0,0,0,0,1,0,0,0,0,0,1,0,0,0,fr
Cambrai,France,river north sea,50.16699982,3.23300004,58,FR,Cambrai,50.173538,3.236633,"Cambrai, France",0.771717710092344,700,2,2,2,1,0,1.11,0,0.01,0,0,1,0,0,0,0,0,0,0,1,0,0,0,fr
Carcassonne,France,river mediterranean,43.21699905,2.349999905,100,FR,Carcassonne,43.212161,2.353663,"Carcassonne, France",0.613989391026124,700,2,2,2,1,0,1.86,0,0.01,0,1,0,0,0,0,0,0,0,0,0,0,1,0,fr
Carpentras,France,land mediterranean,44.05,5.05,95,FR,Carpentras,44.0555639,5.048722,"Carpentras, France",0.626125105637354,700,1,2,0.3,0,0,1.86,0,0.01,0,1,0,0,0,0,1,0,0,0,0,0,1,0,fr
Castelnaudary,France,land north sea,43.32,1.95,165,FR,Castelnaudary,43.317118,1.95333,"11400 Castelnaudary, France",0.418695382540612,700,1,2,0.3,0,0,1.11,0,0.01,0,0,0,0,0,0,1,0,0,0,1,0,0,0,fr
Castelsarrasin,France,river north sea,44.03,1.1,61,FR,Castelsarrasin,44.039889,1.107132,"Castelsarrasin, France",1.23778424672072,700,0,2,2,1,0,1.11,0,0.01,0,0,0,0,0,0,0,0,0,0,1,0,0,0,fr
Castres,France,river north sea,43.59999847,2.25,185,FR,Castres,43.606214,2.241295,"Castres, France",0.984900316087465,700,0,2,2,1,0,1.11,0,0.01,0,0,0,0,0,0,0,0,0,0,1,0,0,0,fr
Cavaillon,France,river mediterranean,43.83,5.03,49,FR,Cavaillon,43.8366045,5.0407814,"Cavaillon, France",1.13556425656901,700,1,2,2,1,0,1.86,0,0.01,0,1,0,0,0,0,0,0,0,0,0,0,1,0,fr
Chalons-sur-Marne (Châlons-en-Champagne),France,river north sea,48.95000076,4.367000103,83,FR,Chalons-sur-Marne ,48.956682,4.363073,"Châlons-en-Champagne, France",0.796244157282837,700,2,2,2,1,0,1.11,0,0.01,0,0,0,0,0,0,0,0,0,0,1,0,0,0,fr
Chalon-sur-saone (Chalon-sur-Saône),France,river mediterranean,46.78300095,4.849999905,175,FR,Chalon-sur-saone ,46.780764,4.853947,"Chalon-sur-Saône, France",0.390634963864176,700,1,2,2,1,0,1.86,0,0.01,0,1,0,0,0,0,0,0,0,0,0,0,1,0,fr
Chambery (Chambéry),France,river mediterranean,45.59999847,5.900000095,342,FR,Chambery ,45.564601,5.917781,"Chambéry, France",4.16873385032075,700,1,2,2,1,0,1.86,0,0.01,0,0,0,0,0,0,0,0,0,0,0,0,1,0,fr
Charleville (Charleville-Mézières),France,river north sea,49.77,4.72,133,FR,Charleville-Mézières,49.762085,4.726096,"Charleville-Mézières, France",0.983261858000481,700,1,2,2,1,0,1.11,0,0.01,0,0,0,0,0,0,0,0,0,0,1,0,0,0,fr
Chartres,France,river north sea,48.45000076,1.5,148,FR,Chartres,48.443854,1.489012,"Chartres, France",1.06173019161821,700,2,2,2,1,0,1.11,0,0.01,0,0,0,0,0,0,0,0,0,0,1,0,0,0,fr
Chateau Gontier (Château-Gontier),France,river north sea,47.82,-0.7,26,FR,Chateau Gontier ,47.8267669,-0.7069,"53200 Château-Gontier, France",0.912244681818656,700,0,2,2,1,0,1.11,0,0.01,0,0,0,0,0,0,0,0,0,0,1,0,0,0,fr
Chateaudun (Châteaudun),France,river north sea,48.08,1.33,102,FR,Chateaudun ,48.070369,1.327696,"28200 Châteaudun, France",1.08378103877884,700,2,2,2,1,0,1.11,0,0.01,0,0,0,0,0,0,0,0,0,0,1,0,0,0,fr
Chateauroux (Châteauroux),France,river north sea,46.82,1.7,154,FR,Chateauroux ,46.811434,1.686779,"Châteauroux, France",1.38687984210527,700,0,2,2,1,0,1.11,0,0.01,0,0,0,0,0,0,0,0,0,0,1,0,0,0,fr
Chatellerault (Châtellerault),France,river north sea,46.82,0.55,42,FR,Chatellerault ,46.816487,0.548146,"Châtellerault, France",0.415084652359439,700,0,2,2,1,0,1.11,0,0.01,0,0,0,0,0,0,0,0,0,0,1,0,0,0,fr
Chaumont,France,river north sea,48.12,5.13,247,FR,Chaumont,48.113748,5.1392559,"Chaumont, France",0.978517790622229,700,0,2,2,1,0,1.11,0,0.01,0,0,0,0,0,0,0,0,0,0,1,0,0,0,fr
Cherbourg (Cherbourg-Octeville),France,north sea,49.65000153,-1.649999976,9,FR,Cherbourg ,49.6337308,-1.622137,"Cherbourg, France",2.70560267780467,700,1,2,1,0,0,1.11,0,0.01,0,0,0,0,1,0,0,0,0,0,1,0,0,0,fr
Chinon,France,river north sea,47.17,0.25,27,FR,Chinon,47.167296,0.240385,"Chinon, France",0.788435865826266,700,1,2,2,1,0,1.11,0,0.01,0,0,0,0,0,0,0,0,0,0,1,0,0,0,fr
Cholet,France,land north sea,47.07,-0.9,63,FR,Cholet,47.059407,-0.879787,"Cholet, France",1.93451353678133,700,0,2,0.3,0,0,1.11,0,0.01,0,0,0,0,0,0,1,0,0,0,1,0,0,0,fr
Clamecy,France,river north sea,47.27,3.52,142,FR,Clamecy,47.459605,3.518769,"Clamecy, France",21.0640733191242,700,1,2,2,1,0,1.11,0,0.01,0,0,0,0,0,0,0,0,0,0,1,0,0,0,fr
Clermont l' Herault (Clermont-l'Hérault),France,land mediterranean,43.62,3.42,40,FR,Clermont l' Herault ,43.62759,3.429495,"Clermont-l'Hérault, France",1.13893991135374,700,0,2,0.3,0,0,1.86,0,0.01,0,0,0,0,0,0,1,0,0,0,0,0,1,0,fr
Clermont-Ferrand,France,river north sea,45.78300095,3.082999945,391,FR,Clermont-Ferrand,45.777222,3.087025,"Clermont-Ferrand, France",0.714062202286691,700,1,2,2,1,0,1.11,0,0.01,0,1,0,0,0,0,0,0,0,0,1,0,0,0,fr
Cluny,France,land mediterranean,46.43,4.65,226,FR,Cluny,46.428968,4.664555,"Cluny, France",1.12457821846863,700,0,2,0.3,0,0,1.86,0,0.01,0,0,0,0,0,0,1,0,0,0,0,0,1,0,fr
Colmar,France,river north sea,48.08300018,7.367000103,187,FR,Colmar,48.0793589,7.358512,"Colmar, France",0.750769448222237,700,0,2,2,1,0,1.11,0,0.01,0,0,0,0,0,0,0,0,0,0,1,0,0,0,fr
Comines (Komen),France,river north sea,50.77,3.02,11,FR,Comines ,50.7650099,3.006234,"Comines, France",1.11843506559585,700,0,2,2,1,0,1.11,0,0.01,0,0,0,0,0,0,0,0,0,0,1,0,0,0,fr
Compiegne (Compiègne),France,river north sea,49.42,2.83,31,FR,Compiegne ,49.417816,2.826145,"Compiègne, France",0.370339333072784,700,0,2,2,1,0,1.11,0,0.01,0,0,0,0,0,0,0,0,0,0,1,0,0,0,fr
Conde sur l' Escaut (Condé-sur-l'Escaut),France,river north sea,50.45,3.6,10,FR,Conde sur l' Escaut ,50.448651,3.593407,"Condé-sur-l'Escaut, France",0.491694111592749,700,0,2,2,1,0,1.11,0,0.01,0,0,0,0,0,0,0,0,0,0,1,0,0,0,fr
Conde sur Noireau (Condé-sur-Noireau),France,river north sea,48.85,-0.55,72,FR,Conde sur Noireau ,48.850993,-0.552764,"Condé-sur-Noireau, France",0.230922837564125,700,0,2,2,1,0,1.11,0,0.01,0,0,0,0,0,0,0,0,0,0,1,0,0,0,fr
Condom,France,river north sea,43.97,0.38,82,FR,Condom,43.9582229,0.372492,"Condom, France",1.43960972146681,700,0,2,2,1,0,1.11,0,0.01,0,0,0,0,0,0,0,0,0,0,1,0,0,0,fr
Condrieu,France,river mediterranean,45.47,4.75,230,FR,Condrieu,45.4617223,4.7680113,"Condrieu, France",1.68198710830823,700,0,2,2,1,0,1.86,0,0.01,0,0,0,0,0,0,0,0,0,0,0,0,1,0,fr
Corte,France,land mediterranean,42.3,9.13,486,FR,Corte,42.309409,9.149022,"Corte, France",1.88423572975605,700,0,2,0.3,0,0,1.86,0,0.01,0,0,0,0,0,0,1,0,0,0,0,0,1,0,fr
Cosne (Cosne-Cours-sur-Loire),France,river north sea,47.4,2.92,148,FR,Cosne ,47.41022,2.925037,"Cosne sur Loire, 58200 Cosne-Cours-sur-Loire, France",1.19734631021439,700,1,2,2,1,0,1.11,0,0.01,0,0,0,0,0,0,0,0,0,0,1,0,0,0,fr
Coutances,France,land north sea,49.05,-1.43,12,FR,Coutances,49.047808,-1.4452609,"50200 Coutances, France",1.14185793367764,700,1,2,0.3,0,0,1.11,0,0.01,0,1,0,0,0,0,1,0,0,0,1,0,0,0,fr
Cuers,France,land mediterranean,43.23,6.07,71,FR,Cuers,43.237875,6.0721999,"Cuers, France",0.892198538354923,700,0,2,0.3,0,0,1.86,0,0.01,0,0,0,0,0,0,1,0,0,0,0,0,1,0,fr
Darnetal (Darnétal),France,land north sea,49.45,1.15,13,FR,Darnetal ,49.446786,1.153222,"Darnétal, France",0.426826671687444,700,0,2,0.3,0,0,1.11,0,0.01,0,0,0,0,0,0,1,0,0,0,1,0,0,0,fr
Dax,France,river north sea,43.72,-1.05,2,FR,Dax,43.708608,-1.051945,"Dax, France",1.27430592544793,700,1,2,2,1,0,1.11,0,0.01,0,1,0,0,0,0,0,0,0,0,1,0,0,0,fr
Dieppe,France,north sea,49.93299866,1.082999945,7,FR,Dieppe,49.922992,1.077483,"Dieppe, France",1.18068917937348,700,0,2,1,0,0,1.11,0,0.01,0,0,0,0,1,0,0,0,0,0,1,0,0,0,fr
Dijon,France,river mediterranean,47.31700134,5.017000198,240,FR,Dijon,47.322047,5.04148,"Dijon, France",1.93372652530082,700,2,2,2,1,0,1.86,0,0.01,0,1,0,0,0,0,0,0,0,0,0,0,1,0,fr
Dinan,France,river north sea,48.45000076,-2.032999992,76,FR,Dinan,48.454366,-2.047327,"22100 Dinan, France",1.16550840275739,700,0,2,2,1,0,1.11,0,0.01,0,0,0,0,0,0,0,0,0,0,1,0,0,0,fr
Dole,France,river mediterranean,47.1,5.5,196,FR,Dole,47.09534,5.49081,"Dole, France",0.868753127337234,700,1,2,2,1,0,1.86,0,0.01,0,0,0,0,0,0,0,0,0,0,0,0,1,0,fr
Douai,France,river north sea,50.36700058,3.066999912,26,FR,Douai,50.367874,3.080602,"Douai, France",0.972614756789918,700,0,2,2,1,0,1.11,0,0.01,0,0,0,0,0,0,0,0,0,0,1,0,0,0,fr
Draguignan,France,land mediterranean,43.53,6.47,153,FR,Draguignan,43.5377269,6.464993,"Draguignan, France",0.948422119807337,700,0,2,0.3,0,0,1.86,0,0.01,0,0,0,0,0,0,1,0,0,0,0,0,1,0,fr
Dreux,France,land north sea,48.44,1.37,75,FR,Dreux,48.736134,1.370889,"Dreux, France",32.9068183820478,700,2,2,0.3,0,0,1.11,0,0.01,0,0,0,0,0,0,1,0,0,0,1,0,0,0,fr
"Dunkerque (Duinkerken, Duenkirchen)",France,north sea,51.04999924,2.367000103,2,FR,Dunkerque ,51.0343684,2.3767763,"Dunkirk, France",1.86814786415279,700,1,2,1,0,0,1.11,0,0.01,0,0,0,0,1,0,0,0,0,0,1,0,0,0,fr
Elbeuf,France,river north sea,49.28,1,2,FR,Elbeuf,49.292163,1.00691,"Elbeuf, France",1.44220978353886,700,0,2,2,1,0,1.11,0,0.01,0,0,0,0,0,0,0,0,0,0,1,0,0,0,fr
Epernay (Épernay),France,river north sea,49.05,3.95,68,FR,Epernay ,49.043411,3.956242,"Épernay, France",0.862786512624346,700,1,2,2,1,0,1.11,0,0.01,0,0,0,0,0,0,0,0,0,0,1,0,0,0,fr
Epinal (Épinal),France,river north sea,48.18,6.45,315,FR,Epinal ,48.172402,6.449403,"Épinal, France",0.845394405472053,700,0,2,2,1,0,1.11,0,0.01,0,0,0,0,0,0,0,0,0,0,1,0,0,0,fr
Etampes (Étampes),France,river north sea,48.43,2.15,66,FR,Etampes ,48.434416,2.16142,"Étampes, France",0.97720765436858,700,1,2,2,1,0,1.11,0,0.01,0,0,0,0,0,0,0,0,0,0,1,0,0,0,fr
Eu,France,river north sea,50.05,1.42,2,FR,Eu,50.04887,1.419597,"Eu, France",0.128877846913096,700,0,2,2,1,0,1.11,0,0.01,0,0,0,0,0,0,0,0,0,0,1,0,0,0,fr
Evreux (Évreux),France,river north sea,49.01699829,1.149999976,117,FR,Evreux ,49.0270129,1.151361,"Évreux, France",1.11737613976416,700,1,2,2,1,0,1.11,0,0.01,0,1,0,0,0,0,0,0,0,0,1,0,0,0,fr
Falaise,France,land north sea,48.90000153,-0.200000003,154,FR,Falaise,48.893548,-0.201956,"14700 Falaise, France",0.731368439378056,700,0,2,0.3,0,0,1.11,0,0.01,0,0,0,0,0,0,1,0,0,0,1,0,0,0,fr
Fecamp (Fécamp),France,north sea,49.75,0.37,1,FR,Fecamp ,49.755601,0.380774,"Fécamp, France",0.995162590589022,700,1,2,1,0,0,1.11,0,0.01,0,0,0,0,1,0,0,0,0,0,1,0,0,0,fr
Figeac,France,river north sea,44.53,2.03,170,FR,Figeac,44.608288,2.032871,"46100 Figeac, France",8.69528773070427,700,0,2,2,1,0,1.11,0,0.01,0,0,0,0,0,0,0,0,0,0,1,0,0,0,fr
Fontainebleau,France,land north sea,48.4,2.7,42,FR,Fontainebleau,48.404676,2.70162,"Fontainebleau, France",0.533248673902182,700,0,2,0.3,0,0,1.11,0,0.01,0,0,0,0,0,0,1,0,0,0,1,0,0,0,fr
Fontenay le Comte (Fontenay-le-Comte),France,land north sea,46.47,-0.8,2,FR,Fontenay le Comte ,46.465972,-0.8065,"Fontenay-le-Comte, France",0.67038515005436,700,1,2,0.3,0,0,1.11,0,0.01,0,0,0,0,0,0,1,0,0,0,1,0,0,0,fr
Fougeres (Fougères),France,land north sea,48.35,-1.2,62,FR,Fougeres ,48.3515609,-1.204626,"35133 Fougères, France",0.384240503742104,700,0,2,0.3,0,0,1.11,0,0.01,0,0,0,0,0,0,1,0,0,0,1,0,0,0,fr
Gaillac,France,river north sea,43.9,1.88,105,FR,Gaillac,43.9018159,1.896506,"Gaillac, France",1.34131839224844,700,0,2,2,1,0,1.11,0,0.01,0,0,0,0,0,0,0,0,0,0,1,0,0,0,fr
Gap,France,land mediterranean,44.57,6.08,630,FR,Gap,44.559638,6.079758,"Gap, France",1.1506497850531,700,1,2,0.3,0,0,1.86,0,0.01,0,1,0,0,0,0,1,0,0,0,0,0,1,0,fr
Gentilly,France,land north sea,48.82,2.35,42,FR,Gentilly,48.8138999,2.344688,"Gentilly, France",0.782117657867395,700,0,2,0.3,0,0,1.11,0,0.01,0,0,0,0,0,0,1,0,0,0,1,0,0,0,fr
Granville,France,north sea,48.83,-1.58,1,FR,Granville,48.837579,-1.597302,"Granville, France",1.52407669064326,700,0,2,1,0,0,1.11,0,0.01,0,0,0,0,1,0,0,0,0,0,1,0,0,0,fr
Grasse,France,land mediterranean,43.67,6.92,80,FR,Grasse,43.660153,6.926492,"Grasse, France",1.21204563254933,700,0,2,0.3,0,0,1.86,0,0.01,0,0,0,0,0,0,1,0,0,0,0,0,1,0,fr
Gray,France,river mediterranean,47.75,5.58,187,FR,Gray,47.445824,5.592354,"70100 Gray, France",33.8063311804781,700,0,2,2,1,0,1.86,0,0.01,0,0,0,0,0,0,0,0,0,0,0,0,1,0,fr
Grenoble,France,river mediterranean,45.16699982,5.717000008,215,FR,Grenoble,45.188529,5.724524,"Grenoble, France",2.46274146809647,700,1,2,2,1,0,1.86,0,0.01,0,0,0,0,0,0,0,0,0,0,0,0,1,0,fr
Guerande (Guérande),France,north sea,47.33,-2.43,1,FR,Guerande ,47.328003,-2.4297589,"Guérande, France",0.222599188461047,700,1,2,1,0,0,1.11,0,0.01,0,0,0,0,1,0,0,0,0,0,1,0,0,0,fr
Guingamp,France,river north sea,48.55,-3.18,62,FR,Guingamp,48.561366,-3.148352,"Guingamp, France",2.65579911195327,700,0,2,2,1,0,1.11,0,0.01,0,0,0,0,0,0,0,0,0,0,1,0,0,0,fr
Haguenau,France,land north sea,48.82,7.78,150,FR,Haguenau,48.813288,7.79125,"Haguenau, France",1.11307517138567,700,0,2,0.3,0,0,1.11,0,0.01,0,0,0,0,0,0,1,0,0,0,1,0,0,0,fr
Hasparren,France,land north sea,43.38,-1.3,7,FR,Hasparren,43.383952,-1.30525,"Hasparren, France",0.611089062474133,700,0,2,0.3,0,0,1.11,0,0.01,0,0,0,0,0,0,1,0,0,0,1,0,0,0,fr
Hondschoote,France,land north sea,50.98300171,2.582999945,5,FR,Hondschoote,50.980922,2.585869,"Hondschoote, France",0.306679285277225,700,0,2,0.3,0,0,1.11,0,0.01,0,0,0,0,0,0,1,0,0,0,1,0,0,0,fr
Honfleur,France,north sea,49.42,0.23,1,FR,Honfleur,49.418762,0.233262,"Honfleur, France",0.273763444657505,700,0,2,1,0,0,1.11,0,0.01,0,0,0,0,1,0,0,0,0,0,1,0,0,0,fr
Hyeres (Hyères),France,land mediterranean,43.12,6.12,1,FR,Hyeres ,43.120541,6.128639,"Hyères, France",0.705615921319116,700,0,2,0.3,0,0,1.86,0,0.01,0,0,0,0,0,0,1,0,0,0,0,0,1,0,fr
Issoire,France,land north sea,45.55,3.25,386,FR,Issoire,45.54151,3.248128,"63500 Issoire, France",0.954098216410404,700,1,2,0.3,0,0,1.11,0,0.01,0,0,0,0,0,0,1,0,0,0,1,0,0,0,fr
Issoudun,France,land north sea,46.95000076,2,151,FR,Issoudun,46.947535,1.988654,"Issoudun, France",0.906143024359169,700,1,2,0.3,0,0,1.11,0,0.01,0,0,0,0,0,0,1,0,0,0,1,0,0,0,fr
Joigny,France,river north sea,47.98,3.4,78,FR,Joigny,47.981432,3.398961,"Joigny, France",0.177005183905078,700,0,2,2,1,0,1.11,0,0.01,0,0,0,0,0,0,0,0,0,0,1,0,0,0,fr
la Charite sur Loire (La Charité-sur-Loire),France,river north sea,47.18,3.02,153,FR,la Charite sur Loire ,47.177091,3.018014,"La Charité-sur-Loire, France",0.356502879185268,700,0,2,2,1,0,1.11,0,0.01,0,0,0,0,0,0,0,0,0,0,1,0,0,0,fr
La Ciotat,France,med,43.17,5.6,1,FR,La Ciotat,43.173653,5.605155,"La Ciotat, France",0.58319132586432,700,1,2,2,0,0,1.86,0,0.01,0,0,0,0,1,0,0,0,0,0,0,0,1,0,fr
la Fleche (La Flèche),France,river north sea,47.7,-0.08,23,FR,la Fleche ,47.69589,-0.074646,"La Flèche, France",0.608280078281506,700,0,2,2,1,0,1.11,0,0.01,0,0,0,0,0,0,0,0,0,0,1,0,0,0,fr
La Rochelle,France,north sea,46.16699982,-1.149999976,15,FR,La Rochelle,46.160329,-1.151139,"La Rochelle, France",0.746106257029258,700,0,2,1,0,0,1.11,0,0.01,0,0,0,0,1,0,0,0,0,0,1,0,0,0,fr
laigle (L'Aigle),France,river north sea,48.75,0.63,195,FR,L'Aigle,48.764651,0.628715,"L'Aigle, France",1.63083130209592,700,0,2,2,1,0,1.11,0,0.01,0,0,0,0,0,0,0,0,0,0,1,0,0,0,fr
Langres,France,land north sea,47.87,5.33,468,FR,Langres,47.86683,5.334297,"52200 Langres, France",0.476859017245542,700,1,2,0.3,0,0,1.11,0,0.01,0,1,0,0,0,0,1,0,0,0,1,0,0,0,fr
Laon,France,land north sea,49.56700134,3.617000103,80,FR,Laon,49.564133,3.61989,"Laon, France",0.381227452157613,700,2,2,0.3,0,0,1.11,0,0.01,0,1,0,0,0,0,1,0,0,0,1,0,0,0,fr
Laval (Laval (Mayenne)),France,river north sea,48.06700134,-0.76700002,58,FR,Laval ,48.0785146,-0.7669906,"Laval, France",1.27923262857621,700,0,2,2,1,0,1.11,0,0.01,0,0,0,0,0,0,0,0,0,0,1,0,0,0,fr
le Cateau (Le Cateau-Cambrésis),France,land north sea,50.1,3.55,84,FR,le Cateau ,50.105949,3.542226,"59360 Le Cateau, France",0.864055250839557,700,0,2,0.3,0,0,1.11,0,0.01,0,0,0,0,0,0,1,0,0,0,1,0,0,0,fr
le Croisic,France,north sea,47.3,-2.52,1,FR,le Croisic,47.294319,-2.511908,"Le Croisic, France",0.879132182137721,700,0,2,1,0,0,1.11,0,0.01,0,0,0,0,1,0,0,0,0,0,1,0,0,0,fr
Le Havre,France,north sea,49.5,0.133000001,4,FR,Le Havre,49.49437,0.107929,"Le Havre, France",1.92092587674011,700,0,2,1,0,0,1.11,0,0.01,0,0,0,0,1,0,0,0,0,0,1,0,0,0,fr
Le Mans,France,river north sea,48,0.200000003,50,FR,Le Mans,48.00611,0.199556,"Le Mans, France",0.679677321900047,700,1,2,2,1,0,1.11,0,0.01,0,1,0,0,0,0,0,0,0,0,1,0,0,0,fr
Le Puy (Le Puy-en-Velay),France,land north sea,45.02999878,3.880000114,713,FR,Le Puy ,45.042768,3.882936,"Le Puy, France",1.43664707371219,700,2,2,0.3,0,0,1.11,0,0.01,0,1,0,0,0,0,1,0,0,0,1,0,0,0,fr
Lectoure,France,river north sea,43.93,0.63,68,FR,Lectoure,43.933604,0.623621,"Lectoure, France",0.649959164961345,700,1,2,2,1,0,1.11,0,0.01,0,1,0,0,0,0,0,0,0,0,1,0,0,0,fr
les Sables d' Olonne (Les Sables-d'Olonne),France,north sea,46.5,-1.78,1,FR,les Sables d' Olonne ,46.492958,-1.795493,"Les Sables-d'Olonne, France",1.42350676127918,700,0,2,1,0,0,1.11,0,0.01,0,0,0,0,1,0,0,0,0,0,1,0,0,0,fr
Libourne,France,river north sea,44.92,-0.23,2,FR,Libourne,44.912998,-0.243985,"Libourne, France",1.35051592259747,700,0,2,2,1,0,1.11,0,0.01,0,0,0,0,0,0,0,0,0,0,1,0,0,0,fr
Lille (Rijssel),France,land north sea,50.63299942,3.066999912,25,FR,Lille ,50.62925,3.057256,"Lille, France",0.805613778821246,700,0,2,0.3,0,0,1.11,0,0.01,0,0,0,0,0,0,1,0,0,0,1,0,0,0,fr
Limoges,France,river north sea,45.84999847,1.25,298,FR,Limoges,45.833619,1.261105,"Limoges, France",2.01327249143745,700,2,2,2,1,0,1.11,0,0.01,0,1,0,0,0,0,0,0,0,0,1,0,0,0,fr
Limoux,France,river mediterranean,43.07,2.23,156,FR,Limoux,43.053289,2.218142,"Limoux, France",2.09128702470168,700,0,2,2,1,0,1.86,0,0.01,0,0,0,0,0,0,0,0,0,0,0,0,1,0,fr
Lisieux,France,river north sea,49.15000153,0.232999995,96,FR,Lisieux,49.145922,0.227849,"14100 Lisieux, France",0.588866689314021,700,1,2,2,1,0,1.11,0,0.01,0,0,0,0,0,0,0,0,0,0,1,0,0,0,fr
Lodeve (Lodève),France,river mediterranean,43.72,3.32,117,FR,Lodeve ,43.73366,3.313975,"Lodève, France",1.59221300423505,700,1,2,2,1,0,1.86,0,0.01,0,1,0,0,0,0,0,0,0,0,0,0,1,0,fr
Lons le saunier (Lons-le-Saunier),France,land mediterranean,46.67,5.55,243,FR,Lons le saunier ,46.671361,5.550796,"Lons-le-Saunier, France",0.162986310456353,700,1,2,0.3,0,0,1.86,0,0.01,0,0,0,0,0,0,1,0,0,0,0,0,1,0,fr
Loudun,France,land north sea,47.17,0.08,47,FR,Loudun,47.0089674,0.083183,"Loudun, France",17.8902871516818,700,1,2,0.3,0,0,1.11,0,0.01,0,0,0,0,0,0,1,0,0,0,1,0,0,0,fr
Louviers,France,river north sea,49.22,1.17,11,FR,Louviers,49.2152477,1.1686123,"Louviers, France",0.537737401678274,700,0,2,2,1,0,1.11,0,0.01,0,0,0,0,0,0,0,0,0,0,1,0,0,0,fr
Lunel,France,land mediterranean,43.68,4.13,12,FR,Lunel,43.67445,4.135366,"Lunel, France",0.752874180038908,700,0,2,0.3,0,0,1.86,0,0.01,0,0,0,0,0,0,1,0,0,0,0,0,1,0,fr
Luneville (Lunéville),France,river north sea,48.59999847,6.5,233,FR,Luneville ,48.592237,6.492339,"Lunéville, France",1.03109909577866,700,0,2,2,1,0,1.11,0,0.01,0,0,0,0,0,0,0,0,0,0,1,0,0,0,fr
Lyon,France,river mediterranean,45.75,4.849999905,175,FR,Lyon,45.764043,4.835659,"Lyon, France",1.91758545337382,700,5,2,2,1,0,1.86,0,0.01,0,0,0,0,0,0,0,0,0,0,0,0,1,0,fr
Macon (Mâcon),France,river mediterranean,46.29999924,4.833000183,171,FR,Macon ,46.3068839,4.828731,"Mâcon, France",0.832403209529838,700,1,2,2,1,0,1.86,0,0.01,0,1,0,0,0,0,0,0,0,0,0,0,1,0,fr
Mamers,France,land north sea,48.35,0.38,105,FR,Mamers,48.347607,0.36733,"Mamers, France",0.976027555697211,700,0,2,0.3,0,0,1.11,0,0.01,0,0,0,0,0,0,1,0,0,0,1,0,0,0,fr
Manosque,France,land mediterranean,43.83,5.78,279,FR,Manosque,43.835744,5.790916,"Manosque, France",1.08510763799485,700,0,2,0.3,0,0,1.86,0,0.01,0,0,0,0,0,0,1,0,0,0,0,0,1,0,fr
Marseille,France,med,43.29999924,5.400000095,54,FR,Marseille,43.296482,5.36978,"Marseille, France",2.48310532636521,700,5,2,2,0,0,1.86,0,0.01,0,1,0,0,1,0,0,0,0,0,0,0,1,0,fr
Martigues,France,med,43.4,5.05,1,FR,Martigues,43.404811,5.053728,"Martigues, France",0.613508894440125,700,1,2,2,0,0,1.86,0,0.01,0,0,0,0,1,0,0,0,0,0,0,0,1,0,fr
Mayenne,France,river north sea,48.3,-0.62,82,FR,Mayenne,48.3061239,-0.620935,"Mayenne, France",0.683981665651647,700,0,2,2,1,0,1.11,0,0.01,0,0,0,0,0,0,0,0,0,0,1,0,0,0,fr
Meaux,France,river north sea,48.95,2.87,39,FR,Meaux,48.9562018,2.8884657,"Meaux, France",1.51791676848322,700,1,2,2,1,0,1.11,0,0.01,0,1,0,0,0,0,0,0,0,0,1,0,0,0,fr
Melun,France,river north sea,48.53,2.67,37,FR,Melun,48.542105,2.6554,"Melun, France",1.72389219669289,700,1,2,2,1,0,1.11,0,0.01,0,0,0,0,0,0,0,0,0,0,1,0,0,0,fr
Mende,France,river north sea,44.5,3.5,691,FR,Mende,44.517611,3.501873,"Mende, France",1.96098449142267,700,1,2,2,1,0,1.11,0,0.01,0,1,0,0,0,0,0,0,0,0,1,0,0,0,fr
Metz,France,river north sea,49.13299942,6.166999817,165,FR,Metz,49.1193089,6.1757156,"Metz, France",1.64910400142175,700,4,2,2,1,0,1.11,0,0.01,0,1,0,0,0,0,0,0,0,0,1,0,0,0,fr
Millau (Graufesenque),France,river north sea,44.1,3.08,340,FR,Millau ,44.100575,3.077801,"Millau, France",0.187290322309707,700,1,2,2,1,0,1.11,0,0.01,0,0,0,0,0,0,0,0,0,0,1,0,0,0,fr
Mirecourt,France,land north sea,48.3,6.13,285,FR,Mirecourt,48.302176,6.133863,"88500 Mirecourt, France",0.374962500266072,700,0,2,0.3,0,0,1.11,0,0.01,0,0,0,0,0,0,1,0,0,0,1,0,0,0,fr
Moissac,France,river north sea,44.1,1.08,59,FR,Moissac,44.104852,1.08468,"Moissac, France",0.656179543659158,700,1,2,2,1,0,1.11,0,0.01,0,0,0,0,0,0,0,0,0,0,1,0,0,0,fr
Mont de Marsan (Mont-de-Marsan),France,river north sea,43.88,-0.5,23,FR,Mont de Marsan ,43.893485,-0.499782,"Mont-de-Marsan, France",1.49712885278593,700,0,2,2,1,0,1.11,0,0.01,0,0,0,0,0,0,0,0,0,0,1,0,0,0,fr
Montargis,France,river north sea,48,2.75,82,FR,Montargis,47.99729,2.736291,"Montargis, France",1.06645235446084,700,1,2,2,1,0,1.11,0,0.01,0,0,0,0,0,0,0,0,0,0,1,0,0,0,fr
Montauban,France,river north sea,44.01699829,1.350000024,101,FR,Montauban,44.0221252,1.3529599,"Montauban, France",0.616669579299332,700,0,2,2,1,0,1.11,0,0.01,0,0,0,0,0,0,0,0,0,0,1,0,0,0,fr
Montbrison,France,land north sea,45.6,4.05,399,FR,Montbrison,45.60745,4.063338,"Montbrison, France",1.32937986860668,700,0,2,0.3,0,0,1.11,0,0.01,0,0,0,0,0,0,1,0,0,0,1,0,0,0,fr
Montelimar (Montélimar),France,river mediterranean,44.57,4.75,56,FR,Montelimar ,44.556944,4.749496,"Montélimar, France",1.45015548198358,700,1,2,2,1,0,1.86,0,0.01,0,0,0,0,0,0,0,0,0,0,0,0,1,0,fr
Montpellier,France,river mediterranean,43.59999847,3.882999897,25,FR,Montpellier,43.610769,3.876716,"Montpellier, France",1.2987973458116,700,0,2,2,1,0,1.86,0,0.01,0,0,0,0,0,0,0,0,0,0,0,0,1,0,fr
Morlaix,France,river north sea,48.58,-3.83,61,FR,Morlaix,48.577613,-3.828228,"Morlaix, France",0.295720539491694,700,1,2,2,1,0,1.11,0,0.01,0,0,0,0,0,0,0,0,0,0,1,0,0,0,fr
Moulins (Moulins (Allier)),france,river north sea,46.56999969,3.329999924,220,FR,Moulins ,46.568059,3.334417,"Moulins, France",0.401424105359001,700,0,2,2,1,0,1.11,0,0.01,0,0,0,0,0,0,0,0,0,0,1,0,0,0,fr
Mulhouse,France,river north sea,47.75,7.33,232,FR,Mulhouse,47.750839,7.335888,"Mulhouse, France",0.45124102268445,700,0,2,2,1,0,1.11,0,0.01,0,0,0,0,0,0,0,0,0,0,1,0,0,0,fr
Nancy,France,river north sea,48.68299866,6.199999809,200,FR,Nancy,48.692054,6.184417,"Nancy, France",1.52608325764934,700,0,2,2,1,0,1.11,0,0.01,0,0,0,0,0,0,0,0,0,0,1,0,0,0,fr
Nantes,France,river north sea,47.21699905,-1.549999952,7,FR,Nantes,47.218371,-1.553621,"Nantes, France",0.313781471529864,700,2,2,2,1,0,1.11,0,0.01,0,1,0,0,0,0,0,0,0,0,1,0,0,0,fr
Narbonne,France,river mediterranean,43.18299866,3,5,FR,Narbonne,43.184277,3.003078,"Narbonne, France",0.287663937006064,700,4,2,2,1,0,1.86,0,0.01,0,0,1,0,0,0,0,0,0,0,0,0,1,0,fr
Nerac (Nérac),France,river north sea,44.13,0.33,71,FR,Nerac ,44.136103,0.340128,"Nérac, France",1.05640915880076,700,0,2,2,1,0,1.11,0,0.01,0,0,0,0,0,0,0,0,0,0,1,0,0,0,fr
Nevers,France,river north sea,46.98300171,3.167000055,172,FR,Nevers,46.990896,3.162845,"Nevers, France",0.932164206705711,700,1,2,2,1,0,1.11,0,0.01,0,1,0,0,0,0,0,0,0,0,1,0,0,0,fr
Nice,France,med,43.70000076,7.25,1,FR,Nice,43.7101728,7.2619532,"Nice, France",1.48436049650701,700,2,2,2,0,0,1.86,0,0.01,0,1,0,0,1,0,0,0,0,0,0,0,1,0,fr
Nimes (Nîmes),France,land mediterranean,43.83300018,4.349999905,37,FR,Nimes ,43.836699,4.360054,"Nimes, France",0.906913174111377,700,3,2,0.3,0,0,1.86,0,0.01,0,1,0,0,0,0,1,0,0,0,0,0,1,0,fr
Niort,france,river north sea,46.29999924,-0.449999988,20,FR,Niort,46.323716,-0.464777,"Niort, France",2.8695979843609,700,2,2,2,1,0,1.11,0,0.01,0,0,0,0,0,0,0,0,0,0,1,0,0,0,fr
Nogent le Rotrou (Nogent-le-Rotrou),France,river north sea,48.32,0.83,97,FR,Nogent le Rotrou ,48.321762,0.8217759,"Nogent-le-Rotrou, France",0.640562952820966,700,0,2,2,1,0,1.11,0,0.01,0,0,0,0,0,0,0,0,0,0,1,0,0,0,fr
Noyon,France,river north sea,49.58,3,36,FR,Noyon,49.580166,3.0007229,"60400 Noyon, France",0.0554388028043174,700,1,2,2,1,0,1.11,0,0.01,0,1,0,0,0,0,0,0,0,0,1,0,0,0,fr
Obernai,France,land north sea,48.47,7.48,156,FR,Obernai,48.46226,7.48168,"Obernai, France",0.868983087285447,700,0,2,0.3,0,0,1.11,0,0.01,0,0,0,0,0,0,1,0,0,0,1,0,0,0,fr
Oloron Ste Marie (Oloron-Sainte-Marie),France,river north sea,43.2,-0.6,194,FR,Oloron Ste Marie ,43.194413,-0.605292,"Oloron-Sainte-Marie, France",0.754715234618362,700,1,2,2,1,0,1.11,0,0.01,0,0,0,0,0,0,0,0,0,0,1,0,0,0,fr
Orange,France,land mediterranean,44.13,4.8,24,FR,Orange,44.1380989,4.807511,"Orange, France",1.08154076442275,700,1,2,0.3,0,0,1.86,0,0.01,0,1,0,0,0,0,1,0,0,0,0,0,1,0,fr
Orleans (Orléans),France,river north sea,47.91699982,1.899999976,120,FR,Orleans ,47.902964,1.909251,"Orléans, France",1.70592135409771,700,2,2,2,1,0,1.11,0,0.01,0,1,0,0,0,0,0,0,0,0,1,0,0,0,fr
Orthez,France,river north sea,43.48,-0.77,38,FR,Orthez,43.48756,-0.7739279,"64300 Orthez, France",0.89734214556877,700,0,2,2,1,0,1.11,0,0.01,0,0,0,0,0,0,0,0,0,0,1,0,0,0,fr
Pamiers,France,river north sea,43.12,1.6,256,FR,Pamiers,43.114753,1.607953,"Pamiers, France",0.870706334423174,700,0,2,2,1,0,1.11,0,0.01,0,0,0,0,0,0,0,0,0,0,1,0,0,0,fr
Paris,France,river north sea,48.86700058,2.332999945,35,FR,Paris,48.856614,2.3522219,"Paris, France",1.82248185725425,700,3,2,2,1,0,1.11,0,0.01,0,1,0,0,0,0,0,0,0,0,1,0,0,0,fr
Pau,France,river north sea,43.3,-0.37,165,FR,Pau,43.2951,-0.370797,"Pau, France",0.547735272549748,700,0,2,2,1,0,1.11,0,0.01,0,0,0,0,0,0,0,0,0,0,1,0,0,0,fr
Perigueux (Périgueux),France,river north sea,45.2,0.73,75,FR,Perigueux ,45.184029,0.7211149,"Périgueux, France",1.90597513527942,700,2,2,2,1,0,1.11,0,0.01,0,1,0,0,0,0,0,0,0,0,1,0,0,0,fr
Perpignan,France,river mediterranean,42.68299866,2.882999897,45,FR,Perpignan,42.6886591,2.8948332,"Perpignan, France",1.15550157285777,700,0,2,2,1,0,1.86,0,0.01,0,0,0,0,0,0,0,0,0,0,0,0,1,0,fr
Pezenas (Pézenas),France,river mediterranean,43.45,3.42,13,FR,Pezenas ,43.461531,3.423193,"Pézenas, France",1.30581835725553,700,1,2,2,1,0,1.86,0,0.01,0,0,0,0,0,0,0,0,0,0,0,0,1,0,fr
Ploermel (Ploërmel),France,land north sea,47.93,2.4,75,FR,Ploërmel,47.929254,-2.396846,"Ploërmel, France",358.394473780698,700,0,2,0.3,0,0,1.11,0,0.01,0,0,0,0,0,0,1,0,0,0,1,0,0,0,fr
Poitiers,France,river north sea,46.58300018,0.333000004,114,FR,Poitiers,46.580224,0.340375,"Poitiers, France",0.643913374257399,700,2,2,2,1,0,1.11,0,0.01,0,1,0,0,0,0,0,0,0,0,1,0,0,0,fr
Poligny,France,land mediterranean,46.83,5.72,252,FR,Poligny,46.836429,5.7091,"Poligny, France",1.09614230184628,700,0,2,0.3,0,0,1.86,0,0.01,0,0,0,0,0,0,1,0,0,0,0,0,1,0,fr
Pont a Mousson (Pont-à-Mousson),France,river north sea,48.9,6.07,172,FR,Pont a Mousson ,48.90329,6.054868,"Pont-à-Mousson, France",1.16810301392027,700,0,2,2,1,0,1.11,0,0.01,0,0,0,0,0,0,0,0,0,0,1,0,0,0,fr
Pont Audemer (Pont-Audemer),France,river north sea,49.35,0.52,2,FR,Pont Audemer ,49.354883,0.5142989,"27500 Pont-Audemer, France",0.682698802763647,700,0,2,2,1,0,1.11,0,0.01,0,0,0,0,0,0,0,0,0,0,1,0,0,0,fr
Pontoise,France,river north sea,49.05,2.1,27,FR,Pontoise,49.050966,2.100645,"Pontoise, France",0.11725017400647,700,1,2,2,1,0,1.11,0,0.01,0,0,0,0,0,0,0,0,0,0,1,0,0,0,fr
Provins,France,land north sea,48.54999924,3.299999952,152,FR,Provins,48.560149,3.299203,"Provins, France",1.12937887795037,700,0,2,0.3,0,0,1.11,0,0.01,0,0,0,0,0,0,1,0,0,0,1,0,0,0,fr
Quimper,France,river north sea,48,-4.1,1,FR,Quimper,47.997542,-4.097899,"Quimper, France",0.314910292700584,700,1,2,2,1,0,1.11,0,0.01,0,1,0,0,0,0,0,0,0,0,1,0,0,0,fr
Rambervillers,France,river north sea,48.35,6.63,287,FR,Rambervillers,48.346528,6.635376,"88700 Rambervillers, France",0.554635113566717,700,0,2,2,1,0,1.11,0,0.01,0,0,0,0,0,0,0,0,0,0,1,0,0,0,fr
Reims,France,river north sea,49.25,4.032999992,83,FR,Reims,49.258329,4.031696,"Reims, France",0.930508266718489,700,5,2,2,1,0,1.11,0,0.01,0,0,1,0,0,0,0,0,0,0,1,0,0,0,fr
Rennes,France,river north sea,48.08300018,-1.682999969,30,FR,Rennes,48.117266,-1.6777926,"Rennes, France",3.82698285286921,700,2,2,2,1,0,1.11,0,0.01,0,1,0,0,0,0,0,0,0,0,1,0,0,0,fr
Rethel,France,river north sea,49.52,4.37,67,FR,Rethel,49.5084965,4.3662756,"08300 Rethel, France",1.30665970654925,700,0,2,2,1,0,1.11,0,0.01,0,0,0,0,0,0,0,0,0,0,1,0,0,0,fr
Riom,France,land north sea,45.90000153,3.117000103,329,FR,Riom,45.8939949,3.114932,"Riom, France",0.686131980671821,700,1,2,0.3,0,0,1.11,0,0.01,0,0,0,0,0,0,1,0,0,0,1,0,0,0,fr
Rive de Gier (Rive-de-Gier),France,land mediterranean,45.33,4.62,227,FR,Rive de Gier ,45.527692,4.615349,"Rive-de-Gier, France",21.9565835955049,700,0,2,0.3,0,0,1.86,0,0.01,0,0,0,0,0,0,1,0,0,0,0,0,1,0,fr
Roanne,France,river north sea,46.03,4.07,257,FR,Roanne,46.034432,4.072695,"Roanne, France",0.534624067238158,700,1,2,2,1,0,1.11,0,0.01,0,0,0,0,0,0,0,0,0,0,1,0,0,0,fr
Rochefort (Rochefort (Charente-Maritime)),France,river north sea,45.93999863,-0.959999979,3,FR,Rochefort ,45.936698,-0.961697,"Rochefort, France",0.389478331824834,700,0,2,2,1,0,1.11,0,0.01,0,0,0,0,0,0,0,0,0,0,1,0,0,0,fr
Rodez,France,river north sea,44.35,2.57,500,FR,Rodez,44.349389,2.575986,"Rodez, France",0.482081325525837,700,1,2,2,1,0,1.11,0,0.01,0,1,0,0,0,0,0,0,0,0,1,0,0,0,fr
Romans (Romans-sur-Isère),France,river mediterranean,45.05,5.05,122,FR,Romans ,45.044236,5.052735,"Romans-sur-Isère, France",0.67533333347499,700,0,2,2,1,0,1.86,0,0.01,0,0,0,0,0,0,0,0,0,0,0,0,1,0,fr
Romorantin (Romorantin-Lanthenay),France,river north sea,47.37,1.75,84,FR,Romorantin ,47.3116878,1.7637608,"Route Romorantin, 41200 Villefranche-sur-Cher, France",6.56100593231104,700,0,2,2,1,0,1.11,0,0.01,0,0,0,0,0,0,0,0,0,0,1,0,0,0,fr
Roubaix,France,land north sea,50.7,3.17,17,FR,Roubaix,50.6927049,3.177847,"Roubaix, France",0.98238761999335,700,0,2,0.3,0,0,1.11,0,0.01,0,0,0,0,0,0,1,0,0,0,1,0,0,0,fr
Rouen,France,river north sea,49.43299866,1.082999945,9,FR,Rouen,49.443232,1.099971,"Rouen, France",1.67587914679624,700,5,2,2,1,0,1.11,0,0.01,0,0,1,0,0,0,0,0,0,0,1,0,0,0,fr
Saintes,France,river north sea,45.73,-0.63,2,FR,Saintes,45.744175,-0.633389,"Saintes, France",1.59616768352105,700,1,2,2,1,0,1.11,0,0.01,0,1,0,0,0,0,0,0,0,0,1,0,0,0,fr
Salies de Bearn (Salies-de-Béarn),France,river north sea,43.48,-0.92,28,FR,Salies de Bearn ,43.470556,-0.924854,"Salies-de-Béarn, France",1.11947889536838,700,1,2,2,1,0,1.11,0,0.01,0,0,0,0,0,0,0,0,0,0,1,0,0,0,fr
Salins les Bains (Salins-les-Bains),France,land mediterranean,46.95,5.88,284,FR,Salins les Bains ,46.939685,5.875801,"Salins-les-Bains, France",1.18959031604987,700,1,2,0.3,0,0,1.86,0,0.01,0,0,0,0,0,0,1,0,0,0,0,0,1,0,fr
Salon de Provence (Salon-de-Provence),France,land mediterranean,43.63,5.1,53,FR,Salon de Provence ,43.640199,5.097022,"Salon-de-Provence, France",1.15739794774047,700,0,2,0.3,0,0,1.86,0,0.01,0,0,0,0,0,0,1,0,0,0,0,0,1,0,fr
Saumur,France,river north sea,47.26699829,-0.082999997,25,FR,Saumur,47.260135,-0.080893,"Saumur, France",0.778946672837721,700,1,2,2,1,0,1.11,0,0.01,0,0,0,0,0,0,0,0,0,0,1,0,0,0,fr
Sedan,France,river north sea,49.70000076,4.949999809,183,FR,Sedan,49.70349,4.93863,"Sedan, France",0.907261093880449,700,0,2,2,1,0,1.11,0,0.01,0,0,0,0,0,0,0,0,0,0,1,0,0,0,fr
Selestat (Sélestat),France,river north sea,48.27,7.45,165,FR,Selestat ,48.259386,7.454241,"Sélestat, France",1.22066904076118,700,1,2,2,1,0,1.11,0,0.01,0,0,0,0,0,0,0,0,0,0,1,0,0,0,fr
Semur en Auxois (Semur-en-Auxois),France,river north sea,47.48,4.33,237,FR,Semur en Auxois ,47.490238,4.33234,"21140 Semur-en-Auxois, France",1.15099277580477,700,1,2,2,1,0,1.11,0,0.01,0,0,0,0,0,0,0,0,0,0,1,0,0,0,fr
Senlis,France,land north sea,49.2,2.58,47,FR,Senlis,49.205164,2.583212,"Senlis, France",0.619800074703292,700,1,2,0.3,0,0,1.11,0,0.01,0,1,0,0,0,0,1,0,0,0,1,0,0,0,fr
Sens,France,river north sea,48.2,3.28,62,FR,Sens,48.20065,3.28268,"89100 Sens, France",0.211907359779924,700,4,2,2,1,0,1.11,0,0.01,0,0,0,0,0,0,0,0,0,0,1,0,0,0,fr
Sisteron,France,river mediterranean,44.2,5.93,448,FR,Sisteron,44.194713,5.943191,"Sisteron, France",1.20684188878235,700,2,2,2,1,0,1.86,0,0.01,0,1,0,0,0,0,0,0,0,0,0,0,1,0,fr
Soissons,France,river north sea,49.37,3.33,38,FR,Soissons,49.376636,3.32342,"Soissons, France",0.878795232392726,700,1,2,2,1,0,1.11,0,0.01,0,1,0,0,0,0,0,0,0,0,1,0,0,0,fr
Sollies Pont (Solliès-Pont),France,land mediterranean,43.18,6.05,39,FR,Sollies Pont ,43.191199,6.041984,"Solliès-Pont, France",1.40352278425652,700,0,2,0.3,0,0,1.86,0,0.01,0,0,0,0,0,0,1,0,0,0,0,0,1,0,fr
St Amand les Eaux (Saint-Amand-les-Eaux),France,river north sea,50.45,3.43,14,FR,St Amand les Eaux ,50.448979,3.428713,"Saint-Amand-les-Eaux, France",0.145730006040297,700,1,2,2,1,0,1.11,0,0.01,0,0,0,0,0,0,0,0,0,0,1,0,0,0,fr
St Amand Montrond (Saint-Amand-Montrond),France,river north sea,46.72,2.48,148,FR,St Amand Montrond ,46.7254859,2.505604,"Saint-Amand-Montrond, France",2.05004368406807,700,0,2,2,1,0,1.11,0,0.01,0,0,0,0,0,0,0,0,0,0,1,0,0,0,fr
St Brieuc (Saint-Brieuc),France,north sea,48.52,-2.78,1,FR,St Brieuc ,48.51418,-2.765835,"Saint-Brieuc, France",1.23016839807549,700,1,2,1,0,0,1.11,0,0.01,0,1,0,0,1,0,0,0,0,0,1,0,0,0,fr
St Die (Saint-Dié-des-Vosges),France,river north sea,48.28,6.95,343,FR,St Die ,48.281521,6.951746,"88100 Saint-Dié, France",0.212967717521601,700,1,2,2,1,0,1.11,0,0.01,0,0,0,0,0,0,0,0,0,0,1,0,0,0,fr
St Dizier (Saint-Dizier),France,river north sea,48.63,4.97,123,FR,St Dizier ,48.637692,4.947418,"Saint-Dizier, France",1.8710835129683,700,0,2,2,1,0,1.11,0,0.01,0,0,0,0,0,0,0,0,0,0,1,0,0,0,fr
St Etienne  (Saint-Étienne),France,land north sea,45.43000031,4.389999866,549,FR,St Etienne  ,45.439695,4.3871779,"Saint-Étienne, France",1.09900152622801,700,0,2,0.3,0,0,1.11,0,0.01,0,0,0,0,0,0,1,0,0,0,1,0,0,0,fr
"St Flour (Saint-Flour, Cantal)",France,land north sea,45.03,3.08,757,FR,St Flour ,45.033026,3.094862,"15100 Saint-Flour, France",1.21842364919728,700,0,2,0.3,0,0,1.11,0,0.01,0,0,0,0,0,0,1,0,0,0,1,0,0,0,fr
St Germain (Saint-Germain-en-Laye),France,river north sea,48.90000153,2.082999945,86,FR,St Germain ,48.8991454,2.0938002,"78100 Saint-Germain, France",0.797554763327953,700,0,2,2,1,0,1.11,0,0.01,0,0,0,0,0,0,0,0,0,0,1,0,0,0,fr
St Gilles (Saint-Gilles (Gard)),France,land mediterranean,43.68,4.43,1,FR,St Gilles ,43.677079,4.433703,"Saint-Gilles, France",0.44080143074413,700,0,2,0.3,0,0,1.86,0,0.01,0,0,0,0,0,0,1,0,0,0,0,0,1,0,fr
St Jean d'Angely (Saint-Jean-d'Angély),France,river north sea,45.95000076,-0.51700002,32,FR,St Jean d'Angely ,45.944823,-0.517763,"17400 Saint-Jean-d'Angély, France",0.57808300719661,700,1,2,2,1,0,1.11,0,0.01,0,0,0,0,0,0,0,0,0,0,1,0,0,0,fr
St Junien (Saint-Junien),France,river north sea,45.88,0.9,157,FR,St Junien ,45.88716,0.901165,"Saint-Junien, France",0.800313246170652,700,0,2,2,1,0,1.11,0,0.01,0,0,0,0,0,0,0,0,0,0,1,0,0,0,fr
St Leonard (Saint-Léonard-de-Noblat),France,river north sea,45.83,1.48,250,FR,Saint-Léonard-de-Noblat,45.8367,1.486205,"87400 Saint-Léonard-de-Noblat, France",0.886617815161971,700,0,2,2,1,0,1.11,0,0.01,0,0,0,0,0,0,0,0,0,0,1,0,0,0,fr
St Lo (Saint-Lô),France,river north sea,49.08,-1.08,7,FR,St Lo ,49.1154686,-1.0828136,"Saint-Lô, France",3.94707205865947,700,1,2,2,1,0,1.11,0,0.01,0,0,0,0,0,0,0,0,0,0,1,0,0,0,fr
St Malo (Saint-Malo),France,north sea,48.63999939,-2.079999924,22,FR,St Malo ,48.649337,-2.025674,"St-Malo, France",4.13559935722228,700,1,2,1,0,0,1.11,0,0.01,0,0,0,0,1,0,0,0,0,0,1,0,0,0,fr
St Marie aux Mines (Sainte-Marie-aux-Mines),France,land north sea,48.25,7.18,326,FR,St Marie aux Mines ,48.2457179,7.182224,"Sainte-Marie-aux-Mines, France",0.503652047547295,700,0,2,0.3,0,0,1.11,0,0.01,0,0,0,0,0,0,1,0,0,0,1,0,0,0,fr
St Mihiel (Saint-Mihiel),France,river north sea,48.9,5.55,215,FR,St Mihiel ,48.88855,5.541657,"55300 Saint-Mihiel, France",1.41184011617399,700,1,2,2,1,0,1.11,0,0.01,0,0,0,0,0,0,0,0,0,0,1,0,0,0,fr
St Omer (Saint-Omer (Pas-de-Calais)),France,river north sea,50.75,2.25,6,FR,St Omer ,50.750115,2.252208,"Saint-Omer, France",0.156350862243265,700,1,2,2,1,0,1.11,0,0.01,0,0,0,0,0,0,0,0,0,0,1,0,0,0,fr
St Pol  (Saint-Pol-de-Léon),France,north sea,48.7,-4,1,FR,Saint-Pol-de-Léon,48.685113,-3.986533,"Saint-Pol-de-Léon, France",1.92864315306051,700,1,2,1,0,0,1.11,0,0.01,0,1,0,0,1,0,0,0,0,0,1,0,0,0,fr
St Quentin (Saint-Quentin),France,river north sea,49.84999847,3.289999962,82,FR,St Quentin ,49.847066,3.2874,"Saint-Quentin, France",0.375771137287988,700,2,2,2,1,0,1.11,0,0.01,0,0,0,0,0,0,0,0,0,0,1,0,0,0,fr
Strasbourg (Strassburg),France,river north sea,48.58300018,7.75,140,FR,Strasbourg ,48.5734053,7.7521113,"Strasbourg, France",1.07751329968788,700,2,2,2,1,0,1.11,0,0.01,0,1,0,0,0,0,0,0,0,0,1,0,0,0,fr
Tarascon,France,river north sea,43.79999924,4.666999817,7,FR,Tarascon,43.806044,4.65752,"Tarascon, France",1.01598901019422,700,1,2,2,1,0,1.11,0,0.01,0,0,0,0,0,0,0,0,0,0,1,0,0,0,fr
Tarbes,France,river north sea,43.23300171,0.082999997,313,FR,Tarbes,43.232951,0.078082,"Tarbes, France",0.39953900969917,700,1,2,2,1,0,1.11,0,0.01,0,1,0,0,0,0,0,0,0,0,1,0,0,0,fr
Thiers (Thiers (Puy-de-Dôme)),France,land north sea,45.85,3.57,283,FR,Thiers ,45.857907,3.545177,"Thiers, France",2.11849146587521,700,1,2,0.3,0,0,1.11,0,0.01,0,0,0,0,0,0,1,0,0,0,1,0,0,0,fr
Thionville,France,river north sea,49.37,6.17,147,FR,Thionville,49.357571,6.168426,"Thionville, France",1.38606591888964,700,0,2,2,1,0,1.11,0,0.01,0,0,0,0,0,0,0,0,0,0,1,0,0,0,fr
Tonneins,France,river north sea,44.38,0.32,39,FR,Tonneins,44.391183,0.308179,"Tonneins, France",1.55847207915848,700,1,2,2,1,0,1.11,0,0.01,0,0,0,0,0,0,0,0,0,0,1,0,0,0,fr
Toul,France,river north sea,48.68,5.9,200,FR,Toul,48.678296,5.890159,"Toul, France",0.749025176379197,700,1,2,2,1,0,1.11,0,0.01,0,1,0,0,0,0,0,0,0,0,1,0,0,0,fr
Toulon,France,med,43.11700058,5.933000088,7,FR,Toulon,43.124228,5.928,"Toulon, France",0.899518111686346,700,1,2,2,0,0,1.86,0,0.01,0,1,0,0,1,0,0,0,0,0,0,0,1,0,fr
Toulouse,France,river north sea,43.59999847,1.432999969,136,FR,Toulouse,43.604652,1.444209,"Toulouse, France",1.04206628677023,700,3,2,2,1,0,1.11,0,0.01,0,1,0,0,0,0,0,0,0,0,1,0,0,0,fr
Tourcoing,France,river north sea,50.71699905,3.150000095,37,FR,Tourcoing,50.724993,3.16207,"Tourcoing, France",1.23135958216571,700,0,2,2,1,0,1.11,0,0.01,0,0,0,0,0,0,0,0,0,0,1,0,0,0,fr
Tournus,France,river mediterranean,46.57,4.9,168,FR,Tournus,46.561816,4.9119529,"Tournus, France",1.29080641287098,700,1,2,2,1,0,1.86,0,0.01,0,0,0,0,0,0,0,0,0,0,0,0,1,0,fr
Tours,France,river north sea,47.38299942,0.683000028,49,FR,Tours,47.394144,0.68484,"Tours, France",1.2458650955259,700,5,2,2,1,0,1.11,0,0.01,0,1,0,0,0,0,0,0,0,0,1,0,0,0,fr
Troyes,France,river north sea,48.29999924,4.083000183,106,FR,Troyes,48.2973451,4.0744009,"Troyes, France",0.702872941125613,700,2,2,2,1,0,1.11,0,0.01,0,1,0,0,0,0,0,0,0,0,1,0,0,0,fr
Tulle,France,river north sea,45.27,1.77,185,FR,Tulle,45.26565,1.771697,"Tulle, France",0.501070987428926,700,0,2,2,1,0,1.11,0,0.01,0,0,0,0,0,0,0,0,0,0,1,0,0,0,fr
Uzes (Uzès),France,river mediterranean,44.02,4.42,167,FR,Uzes ,44.01211,4.419946,"Uzès, France",0.875935911634883,700,1,2,2,1,0,1.86,0,0.01,0,1,0,0,0,0,0,0,0,0,0,0,1,0,fr
Valence (Valence (Drôme)),France,river mediterranean,44.93,4.9,106,FR,Valence ,44.933393,4.89236,"Valence, France",0.711108279752036,700,1,2,2,1,0,1.86,0,0.01,0,1,0,0,0,0,0,0,0,0,0,0,1,0,fr
Valenciennes,France,river north sea,50.34999847,3.532999992,33,FR,Valenciennes,50.357113,3.518332,"Valenciennes, France",1.30964635887307,700,1,2,2,1,0,1.11,0,0.01,0,0,0,0,0,0,0,0,0,0,1,0,0,0,fr
Valognes,France,land north sea,49.52,-1.47,19,FR,Valognes,49.509594,-1.469216,"50700 Valognes, France",1.15793703222288,700,1,2,0.3,0,0,1.11,0,0.01,0,0,0,0,0,0,1,0,0,0,1,0,0,0,fr
Vannes,France,north sea,47.65,-2.77,1,FR,Vannes,47.658236,-2.760847,"Vannes, France",1.14457281163074,700,1,2,1,0,0,1.11,0,0.01,0,1,0,0,1,0,0,0,0,0,1,0,0,0,fr
Vendome (Vendôme),France,river north sea,47.8,1.07,82,FR,Vendome ,47.792551,1.065343,"41100 Vendôme, France",0.89814334532685,700,1,2,2,1,0,1.11,0,0.01,0,0,0,0,0,0,0,0,0,0,1,0,0,0,fr
Verdun,France,river north sea,49.17,5.4,194,FR,Verdun,49.1598764,5.3844231,"Verdun, France",1.5988530470038,700,1,2,2,1,0,1.11,0,0.01,0,1,0,0,0,0,0,0,0,0,1,0,0,0,fr
Verdun sur Garonne (Verdun-sur-Garonne),France,river north sea,43.85,1.23,110,FR,Verdun sur Garonne ,43.854134,1.235576,"Verdun-sur-Garonne, France",0.641577758785409,700,0,2,2,1,0,1.11,0,0.01,0,0,0,0,0,0,0,0,0,0,1,0,0,0,fr
Vesoul,France,land mediterranean,47.63,6.17,213,FR,Vesoul,47.619788,6.15428,"70000 Vesoul, France",1.63808827844869,700,0,2,0.3,0,0,1.86,0,0.01,0,0,0,0,0,0,1,0,0,0,0,0,1,0,fr
Vienne (Vienne (Isère)),France,river mediterranean,45.51699829,4.867000103,262,FR,Vienne ,45.525587,4.874339,"Vienne, France",1.11286560135751,700,4,2,2,1,0,1.86,0,0.01,0,0,1,0,0,0,0,0,0,0,0,0,1,0,fr
Vierzon,France,river north sea,47.23,2.07,102,FR,Vierzon,47.221438,2.069791,"Vierzon, France",0.95128650228179,700,1,2,2,1,0,1.11,0,0.01,0,0,0,0,0,0,0,0,0,0,1,0,0,0,fr
Villefranche de Rouergue (Villefranche-de-Rouergue),France,river north sea,44.34999847,2.049999952,440,FR,Villefranche de Rouergue ,44.349746,2.035381,"Villefranche-de-Rouergue, France",1.16595375267541,700,0,2,2,1,0,1.11,0,0.01,0,0,0,0,0,0,0,0,0,0,1,0,0,0,fr
Villefranche sur Saone (Villefranche-sur-Saône),France,river mediterranean,45.98,4.72,167,FR,Villefranche sur Saone ,45.991471,4.718821,"Villefranche-sur-Saone, France",1.27726360982728,700,0,2,2,1,0,1.86,0,0.01,0,0,0,0,0,0,0,0,0,0,0,0,1,0,fr
Villeneuve (Villeneuve-sur-Lot),France,river north sea,44.41999817,0.720000029,81,FR,Villeneuve-sur-Lot,44.4082053,0.7072568,"Villeneuve-sur-Lot, France",1.65662980646607,700,0,2,2,1,0,1.11,0,0.01,0,0,0,0,0,0,0,0,0,0,1,0,0,0,fr
Vire,France,land north sea,48.83,-0.88,85,FR,Vire,48.837781,-0.888482,"Vire, France",1.06556182366245,700,0,2,0.3,0,0,1.11,0,0.01,0,0,0,0,0,0,1,0,0,0,1,0,0,0,fr
Vitre (Vitré),France,river north sea,48.13,-1.2,67,FR,Vitre ,48.124746,-1.21543,"Vitré, France",1.28846429273211,700,0,2,2,1,0,1.11,0,0.01,0,0,0,0,0,0,0,0,0,0,1,0,0,0,fr
Vitry le Francois (Vitry-le-François0,France,river north sea,48.73,4.6,92,FR,Vitry le Francois ,48.726087,4.585745,"51300 Vitry-le-François, France",1.13530010922481,700,0,2,2,1,0,1.11,0,0.01,0,0,0,0,0,0,0,0,0,0,1,0,0,0,fr
Voiron,France,land mediterranean,45.37,5.58,222,FR,Voiron,45.362713,5.591349,"Voiron, France",1.20221717524899,700,0,2,0.3,0,0,1.86,0,0.01,0,0,0,0,0,0,1,0,0,0,0,0,1,0,fr
Wissembourg,France,land north sea,49.03,7.95,133,FR,Wissembourg,49.036858,7.94454,"Wissembourg, France",0.860379494047388,700,0,2,0.3,0,0,1.11,0,0.01,0,0,0,0,0,0,1,0,0,0,1,0,0,0,fr
Yssingeaux,France,land north sea,45.15,4.12,589,FR,Yssingeaux,45.142667,4.123734,"Yssingeaux, France",0.865612393569609,700,0,2,0.3,0,0,1.11,0,0.01,0,0,0,0,0,0,1,0,0,0,1,0,0,0,fr
Yvetot,France,land north sea,49.62,0.77,83,FR,Yvetot,49.617779,0.755212,"76190 Yvetot, France",1.09673307837901,700,0,2,0.3,0,0,1.11,0,0.01,0,0,0,0,0,0,1,0,0,0,1,0,0,0,fr
Aalst (Alost),Belgium,river north sea,50.93299866,4.032999992,17,BE,Aalst ,50.9378101,4.0409517,"Aalst, Belgium",0.773669775857291,700,0,2,2,1,0,1.11,0,0,0,0,0,0,0,0,0,0,0,0,1,0,0,0,be
"Antwerpen (Anvers, Antwerp)",Belgium,north sea q,51.21699905,4.416999817,3,BE,Antwerpen ,51.2194475,4.4024643,"Antwerp, Belgium",1.05141357550859,700,0,2,1,1,0,1.11,0,0,0,0,0,0,1,1,0,0,0,0,1,0,0,0,be
Ath (Aat),Belgium,river north sea,50.63,3.78,32,BE,Ath ,50.6304302,3.776992,"Ath, Belgium",0.218135011532427,700,0,2,2,1,0,1.11,0,0,0,0,0,0,0,0,0,0,0,0,1,0,0,0,be
Beveren,Belgium,land north sea,51.22,4.25,12,BE,Beveren,51.2132494,4.2581649,"Beveren, Belgium",0.94273417253098,700,0,2,0.3,0,0,1.11,0,0,0,0,0,0,0,0,1,0,0,0,1,0,0,0,be
Brugge (Bruges),Belgium,north sea,51.21699905,3.23300004,2,BE,Brugge ,51.209348,3.2246995,"Bruges, Belgium",1.02956164855204,700,0,2,1,0,0,1.11,0,0,0,0,0,0,1,0,0,0,0,0,1,0,0,0,be
Bruxelles (Brussels),Belgium,river north sea,50.83300018,4.333000183,62,BE,Bruxelles ,50.8503396,4.3517103,"Brussels, Belgium",2.33508402508183,700,0,2,2,1,0,1.11,0,0,0,0,0,0,0,0,0,0,0,0,1,0,0,0,be
Charleroi,Belgium,river north sea,50.42,4.43,136,BE,Charleroi,50.4108095,4.444643,"Charleroi, Belgium",1.45839881684054,700,0,2,2,1,0,1.11,0,0,0,0,0,0,0,0,0,0,0,0,1,0,0,0,be
Dendermonde,Belgium,river north sea,51.03,4.12,6,BE,Dendermonde,51.025477,4.1019516,"Dendermonde, Belgium",1.36239081698049,700,0,2,2,1,0,1.11,0,0,0,0,0,0,0,0,0,0,0,0,1,0,0,0,be
Diest,Belgium,river north sea,50.98,5.05,22,BE,Diest,50.98965,5.05016,"Diest, Belgium",1.07289783546106,700,0,2,2,1,0,1.11,0,0,0,0,0,0,0,0,0,0,0,0,1,0,0,0,be
Dinant,Belgium,river north sea,50.27,4.92,96,BE,Dinant,50.260494,4.9127457,"Dinant, Belgium",1.17647545555271,700,1,2,2,1,0,1.11,0,0,0,0,0,0,0,0,0,0,0,0,1,0,0,0,be
Eeklo,Belgium,land north sea,51.18,3.57,6,BE,Eeklo,51.1852719,3.5638899,"Eeklo, Belgium",0.725304631412295,700,0,2,0.3,0,0,1.11,0,0,0,0,0,0,0,0,1,0,0,0,1,0,0,0,be
Enghien (Edingen),Belgium,land north sea,50.7,4.03,104,BE,Enghien ,50.6947421,4.0418582,"Enghien, Belgium",1.02156463047322,700,0,2,0.3,0,0,1.11,0,0,0,0,0,0,0,0,1,0,0,0,1,0,0,0,be
Eupen,Belgium,land north sea,50.63,6.03,298,BE,Eupen,50.6292029,6.0337111,"Eupen, Belgium",0.277127019402274,700,0,2,0.3,0,0,1.11,0,0,0,0,0,0,0,0,1,0,0,0,1,0,0,0,be
Evergem,Belgium,land north sea,51.12,3.7,7,BE,Evergem,51.1099708,3.7067221,"Evergem, Belgium",1.21030801716444,700,0,2,0.3,0,0,1.11,0,0,0,0,0,0,0,0,1,0,0,0,1,0,0,0,be
"Gent (Gand, Ghent)",Belgium,river north sea,51.1,3.7,4,BE,Gent ,51.0543422,3.7174243,"Ghent, Belgium",5.22090999713387,700,2,2,2,1,0,1.11,0,0,0,0,0,0,0,0,0,0,0,0,1,0,0,0,be
Geraardsbergen,Belgium,river north sea,50.77,3.87,32,BE,Geraardsbergen,50.7707354,3.8751639,"Geraardsbergen, Belgium",0.373340398631313,700,0,2,2,1,0,1.11,0,0,0,0,0,0,0,0,0,0,0,0,1,0,0,0,be
Hamme,Belgium,river north sea,51.1,4.13,6,BE,Hamme,51.090201,4.1402689,"Hamme, Belgium",1.3055083778223,700,1,2,2,1,0,1.11,0,0,0,0,0,0,0,0,0,0,0,0,1,0,0,0,be
Hasselt,Belgium,river north sea,50.93,5.33,42,BE,Hasselt,50.93069,5.33248,"Hasselt, Belgium",0.190479353899053,700,1,2,2,1,0,1.11,0,0,0,0,0,0,0,0,0,0,0,0,1,0,0,0,be
Huy (Hoei),Belgium,river north sea,50.52,5.23,75,BE,Huy ,50.5187153,5.2396656,"Huy, Belgium",0.700205340485587,700,2,2,2,1,0,1.11,0,0,0,0,0,0,0,0,0,0,0,0,1,0,0,0,be
Ieper (Ypres),Belgium,river north sea,50.84999847,2.882999897,19,BE,Ieper ,50.8492265,2.8779388,"Ypres, Belgium",0.366610134217855,700,0,2,2,1,0,1.11,0,0,0,0,0,0,0,0,0,0,0,0,1,0,0,0,be
Izegem,Belgium,land north sea,50.92,3.2,18,BE,Izegem,50.9180785,3.2132192,"Izegem, Belgium",0.953798085666586,700,0,2,0.3,0,0,1.11,0,0,0,0,0,0,0,0,1,0,0,0,1,0,0,0,be
Kortrijk (Courtrai),Belgium,river north sea,50.83300018,3.26699996,15,BE,Kortrijk ,50.8194776,3.2577263,"Kortrijk, Belgium",1.63918750117962,700,1,2,2,1,0,1.11,0,0,0,0,0,0,0,0,0,0,0,0,1,0,0,0,be
Kruishoutem,Belgium,land north sea,50.9,3.52,45,BE,Kruishoutem,50.904499,3.5281414,"Kruishoutem, Belgium",0.760367393361251,700,0,2,0.3,0,0,1.11,0,0,0,0,0,0,0,0,1,0,0,0,1,0,0,0,be
"Leuven (Loewen, Louvain)",Belgium,river north sea,50.88299942,4.699999809,35,BE,Leuven ,50.8798438,4.7005176,"Leuven, Belgium",0.352706313765595,700,0,2,2,1,0,1.11,0,0,0,0,0,0,0,0,0,0,0,0,1,0,0,0,be
"Liege (Luik, Luettich)",Belgium,river north sea,50.63299942,5.566999912,64,BE,Liege ,50.6325574,5.5796662,"Liège, Belgium",0.89748790890764,700,1,2,2,1,0,1.11,0,0,0,1,0,0,0,0,0,0,0,0,1,0,0,0,be
Lier,Belgium,river north sea,51.13299942,4.566999912,3,BE,Lier,51.1302138,4.5715092,"Lier, Belgium",0.442204942419022,700,0,2,2,1,0,1.11,0,0,0,0,0,0,0,0,0,0,0,0,1,0,0,0,be
Lokeren,Belgium,river north sea,51.09999847,3.98300004,3,BE,Lokeren,51.1023413,3.9940663,"Lokeren, Belgium",0.817725667931232,700,0,2,2,1,0,1.11,0,0,0,0,0,0,0,0,0,0,0,0,1,0,0,0,be
Malmedy,Belgium,river north sea,50.42,6.03,344,BE,Malmedy,50.4246396,6.0283276,"Malmedy, Belgium",0.529266046901604,700,1,2,2,1,0,1.11,0,0,0,0,0,0,0,0,0,0,0,0,1,0,0,0,be
Mechelen (Malines),Belgium,river north sea,51.03300095,4.467000008,4,BE,Mechelen ,51.0258761,4.4775362,"Mechelen, Belgium",1.08340935858662,700,0,2,2,1,0,1.11,0,0,0,0,0,0,0,0,0,0,0,0,1,0,0,0,be
Menen,Belgium,river north sea,50.8,3.12,18,BE,Menen,50.7962915,3.121342,"Menen, Belgium",0.4229940864325,700,0,2,2,1,0,1.11,0,0,0,0,0,0,0,0,0,0,0,0,1,0,0,0,be
Meulebeke,Belgium,land north sea,50.95,3.28,15,BE,Meulebeke,50.9506,3.28637,"8760 Meulebeke, Belgium",0.452578185090097,700,0,2,0.3,0,0,1.11,0,0,0,0,0,0,0,0,1,0,0,0,1,0,0,0,be
Mons (Bergen),Belgium,river north sea,50.45000076,3.933000088,30,BE,Mons ,50.4542408,3.956659,"Mons, Belgium",1.74513367406175,700,0,2,2,1,0,1.11,0,0,0,0,0,0,0,0,0,0,0,0,1,0,0,0,be
Namur (Namen),Belgium,river north sea,50.46699905,4.867000103,120,BE,Namur ,50.4673883,4.8719854,"Namur, Belgium",0.356583145053672,700,0,2,2,1,0,1.11,0,0,0,0,0,0,0,0,0,0,0,0,1,0,0,0,be
Nieuwpoort,Belgium,north sea q,51.13,2.75,2,BE,Nieuwpoort,51.1284823,2.7480158,"Nieuwpoort, Belgium",0.218550345114801,700,0,2,1,1,0,1.11,0,0,0,0,0,0,1,1,0,0,0,0,1,0,0,0,be
Nivelles (Nijvel),Belgium,land north sea,50.6,4.33,148,BE,Nivelles ,50.59787,4.32851,"Nivelles, Belgium",0.259221189648382,700,1,2,0.3,0,0,1.11,0,0,0,0,0,0,0,0,1,0,0,0,1,0,0,0,be
Ostende,Belgium,north sea,51.21699905,2.917000055,34,BE,Ostende,51.21543,2.928656,"Ostend, Belgium",0.83288296348766,700,0,2,1,0,0,1.11,0,0,0,0,0,0,1,0,0,0,0,0,1,0,0,0,be
Oudenaarde,Belgium,river north sea,50.85,3.6,39,BE,Oudenaarde,50.8469547,3.6013676,"Oudenaarde, Belgium",0.351985596190861,700,0,2,2,1,0,1.11,0,0,0,0,0,0,0,0,0,0,0,0,1,0,0,0,be
Peruwelz,Belgium,land north sea,50.52,3.58,59,BE,Peruwelz,50.5105818,3.5936738,"Peruwelz, Belgium",1.42713539077958,700,0,2,0.3,0,0,1.11,0,0,0,0,0,0,0,0,1,0,0,0,1,0,0,0,be
Poperinge,Belgium,land north sea,50.85,2.72,1,BE,Poperinge,50.8549596,2.7267929,"Poperinge, Belgium",0.729951949114527,700,0,2,0.3,0,0,1.11,0,0,0,0,0,0,0,0,1,0,0,0,1,0,0,0,be
Roeselare,Belgium,land north sea,50.95,3.13,19,BE,Roeselare,50.9499087,3.1294471,"Roeselare, Belgium",0.0401578554463496,700,0,2,0.3,0,0,1.11,0,0,0,0,0,0,0,0,1,0,0,0,1,0,0,0,be
Ronse (Renaix),Belgium,land north sea,50.75,3.6,68,BE,Ronse ,50.7505367,3.6005095,"Ronse, Belgium",0.0696620865257992,700,0,2,0.3,0,0,1.11,0,0,0,0,0,0,0,0,1,0,0,0,1,0,0,0,be
Ruiselede,Belgium,land north sea,51.05,3.4,12,BE,Ruiselede,51.0413098,3.3970513,"Ruiselede, Belgium",0.988026845332743,700,0,2,0.3,0,0,1.11,0,0,0,0,0,0,0,0,1,0,0,0,1,0,0,0,be
Schaarbeek,Belgium,land north sea,50.87,4.37,43,BE,Schaarbeek,50.8674164,4.3772981,"Schaerbeek, Belgium",0.588591076357268,700,0,2,0.3,0,0,1.11,0,0,0,0,0,0,0,0,1,0,0,0,1,0,0,0,be
St-Niklaas,Belgium,land north sea,51.16699982,4.132999897,13,BE,St-Niklaas,51.1558839,4.154441,"Sint-Niklaas, Belgium",1.94344486665337,700,0,2,0.3,0,0,1.11,0,0,0,0,0,0,0,0,1,0,0,0,1,0,0,0,be
St-Truiden (Saint Trond),Belgium,land north sea,50.8,5.2,40,BE,St-Truiden ,50.8157248,5.1862508,"Sint-Truiden, Belgium",1.99880668000473,700,1,2,0.3,0,0,1.11,0,0,0,0,0,0,0,0,1,0,0,0,1,0,0,0,be
Temse,Belgium,river north sea,51.13,4.22,10,BE,Temse,51.12955,4.21275,"Temse, Belgium",0.509970706300111,700,0,2,2,1,0,1.11,0,0,0,0,0,0,0,0,0,0,0,0,1,0,0,0,be
Tielt,Belgium,land north sea,51,3.32,43,BE,Tielt,51.0001519,3.3263821,"Tielt, Belgium",0.448324804856272,700,0,2,0.3,0,0,1.11,0,0,0,0,0,0,0,0,1,0,0,0,1,0,0,0,be
Tienen,Belgium,land north sea,50.8,4.95,56,BE,Tienen,50.81057,4.93622,"Tienen, Belgium",1.52458198258002,700,0,2,0.3,0,0,1.11,0,0,0,0,0,0,0,0,1,0,0,0,1,0,0,0,be
Tongeren,Belgium,river north sea,50.78,5.47,107,BE,Tongeren,50.78419,5.47449,"Tongeren, Belgium",0.563246843177879,700,2,2,2,1,0,1.11,0,0,0,1,0,0,0,0,0,0,0,0,1,0,0,0,be
Torhout,Belgium,land north sea,51.07,3.1,17,BE,Torhout,51.06498,3.10157,"Torhout, Belgium",0.568854381316807,700,0,2,0.3,0,0,1.11,0,0,0,0,0,0,0,0,1,0,0,0,1,0,0,0,be
Tournai (Doornik),Belgium,river north sea,50.59999847,3.382999897,41,BE,Tournai ,50.6056475,3.3879338,"Tournai, Belgium",0.718588355213664,700,2,2,2,1,0,1.11,0,0,0,1,0,0,0,0,0,0,0,0,1,0,0,0,be
Turnhout,Belgium,land north sea,51.32,4.95,30,BE,Turnhout,51.3216509,4.9375577,"Turnhout, Belgium",0.8865891542704,700,0,2,0.3,0,0,1.11,0,0,0,0,0,0,0,0,1,0,0,0,1,0,0,0,be
Verviers,Belgium,river north sea,50.58300018,5.867000103,250,BE,Verviers,50.5910564,5.8655951,"Verviers, Belgium",0.90108923806195,700,0,2,2,1,0,1.11,0,0,0,0,0,0,0,0,0,0,0,0,1,0,0,0,be
Waregem,Belgium,land north sea,50.88,3.42,17,BE,Waregem,50.8868949,3.4231675,"Waregem, Belgium",0.79827802723544,700,0,2,0.3,0,0,1.11,0,0,0,0,0,0,0,0,1,0,0,0,1,0,0,0,be
Wavre (Waver),Belgium,river north sea,50.72,4.62,20,BE,Wavre ,50.7158956,4.6128075,"Wavre, Belgium",0.6827926849781,700,0,2,2,1,0,1.11,0,0,0,0,0,0,0,0,0,0,0,0,1,0,0,0,be
Wingene,Belgium,land north sea,51.07,3.27,16,BE,Wingene,51.05865,3.2748,"Wingene, Belgium",1.30594835655188,700,0,2,0.3,0,0,1.11,0,0,0,0,0,0,0,0,1,0,0,0,1,0,0,0,be
Zele,Belgium,land north sea,51.07,4.03,6,BE,Zele,51.0700765,4.0403498,"Zele, Belgium",0.725485415833545,700,0,2,0.3,0,0,1.11,0,0,0,0,0,0,0,0,1,0,0,0,1,0,0,0,be
Zomergem,Belgium,land north sea,51.12,3.55,5,BE,Zomergem,51.1192868,3.5644511,"Zomergem, Belgium",1.01492179345259,700,0,2,0.3,0,0,1.11,0,0,0,0,0,0,0,0,1,0,0,0,1,0,0,0,be
Altstaetten (Altstätten),Switzerland,land north sea,47.38,9.55,410,CH,Altstaetten ,47.3774633,9.5469133,"Altstätten, Switzerland",0.365720798213567,700,0,2,0.3,0,0,1.11,0,0,0,0,0,0,0,0,1,0,0,0,1,0,0,0,ch
Basel,Switzerland,river north sea,47.56700134,7.599999905,250,CH,Basel,47.5595986,7.5885761,"Basel, Switzerland",1.18971548878909,700,2,2,2,1,0,1.11,0,0,0,1,0,0,0,0,0,0,0,0,1,0,0,0,ch
Bern,Switzerland,river north sea,46.91699982,7.467000008,536,CH,Bern,46.9479739,7.4474468,"Bern, Switzerland",3.74908210356132,700,1,2,2,1,0,1.11,0,0,0,0,0,0,0,0,0,0,0,0,1,0,0,0,ch
Chur,Switzerland,river north sea,46.83,9.51,593,CH,Chur,46.8507835,9.5319859,"Chur, Switzerland",2.8535341291516,700,1,2,2,1,0,1.11,0,0,0,1,0,0,0,0,0,0,0,0,1,0,0,0,ch
Fribourg,Switzerland,river north sea,46.8,7.15,610,CH,Fribourg,46.8064773,7.1619719,"Fribourg, Switzerland",1.16311584022992,700,0,2,2,1,0,1.11,0,0,0,0,0,0,0,0,0,0,0,0,1,0,0,0,ch
"Geneve (Geneva, Genf)",Switzerland,river mediterranean,46.20000076,6.166999817,406,CH,Geneve ,46.2043907,6.1431577,"Geneva, Switzerland",1.90364634918072,700,1,2,2,1,0,1.86,0,0,0,1,0,0,0,0,0,0,0,0,0,0,1,0,ch
Herisau,Switzerland,land north sea,47.38,9.28,745,CH,Herisau,47.3857009,9.2798472,"Herisau, Switzerland",0.633439911506858,700,0,2,0.3,0,0,1.11,0,0,0,0,0,0,0,0,1,0,0,0,1,0,0,0,ch
la Chaux de Fonds (La Chaux-de-Fonds),Switzerland,land north sea,47.1,6.83,1039,CH,la Chaux de Fonds ,47.1034892,6.8327838,"La Chaux-de-Fonds, Switzerland",0.44146928640602,700,0,2,0.3,0,0,1.11,0,0,0,0,0,0,0,0,1,0,0,0,1,0,0,0,ch
Lausanne,Switzerland,river mediterranean,46.52,6.63,372,CH,Lausanne,46.5196535,6.6322734,"Lausanne, Switzerland",0.178643402513771,700,2,2,2,1,0,1.86,0,0,0,1,0,0,0,0,0,0,0,0,0,0,1,0,ch
le Locle,Switzerland,land north sea,47.05,6.75,1047,CH,le Locle,47.0577195,6.7487354,"2400 Le Locle, Switzerland",0.862897154031717,700,0,2,0.3,0,0,1.11,0,0,0,0,0,0,0,0,1,0,0,0,1,0,0,0,ch
Schaffhausen,Switzerland,river north sea,47.7,8.63,403,CH,Schaffhausen,47.6958897,8.6380488,"Schaffhausen, Switzerland",0.757311991967183,700,0,2,2,1,0,1.11,0,0,0,0,0,0,0,0,0,0,0,0,1,0,0,0,ch
Sion,Switzerland,river mediterranean,46.24,7.33,500,CH,Sion,46.2331221,7.360626,"Sion, Switzerland",2.48270222564809,700,1,2,2,1,0,1.86,0,0,0,1,0,0,0,0,0,0,0,0,0,0,1,0,ch
St Gallen,Switzerland,land north sea,47.42,9.38,675,CH,St Gallen,47.4244818,9.3767173,"St Gallen, Switzerland",0.556112160408416,700,0,2,0.3,0,0,1.11,0,0,0,0,0,0,0,0,1,0,0,0,1,0,0,0,ch
Winterthur,Switzerland,river north sea,47.5,8.72,439,CH,Winterthur,47.4988196,8.7236889,"Winterthur, Switzerland",0.307321131905741,700,1,2,2,1,0,1.11,0,0,0,0,0,0,0,0,0,0,0,0,1,0,0,0,ch
Zuerich (Zürich),Switzerland,river north sea,47.36700058,8.550000191,449,CH,Zuerich ,47.3768866,8.541694,"Zürich, Switzerland",1.26481295284885,700,2,2,2,1,0,1.11,0,0,0,0,0,0,0,0,0,0,0,0,1,0,0,0,ch
Aberdeen,UK,north sea q,57.15000153,-2.124000072,24,GB,Aberdeen,57.149717,-2.094278,"Aberdeen, Aberdeen City, UK",1.79927939889186,700,0,2,1,1,0,1.11,0,0.01,0,0,0,0,1,1,0,0,0,0,1,0,0,0,uk
Ashton-under-Lyne,UK,river north sea,53.49200058,-2.082999945,131,GB,Ashton-under-Lyne,53.4876815,-2.0961077,"Ashton-under-Lyne, UK",0.993848595697854,700,0,2,2,1,0,1.11,0,0.01,0,0,0,0,0,0,0,0,0,0,1,0,0,0,uk
Bath,UK,river north sea,51.37799835,-2.365999937,72,GB,Bath,51.375801,-2.3599039,"Bath, Bath, Bath and North East Somerset, UK",0.48973938254378,700,1,2,2,1,0,1.11,0,0.01,0,0,0,0,0,0,0,0,0,0,1,0,0,0,uk
Berwick,UK,north sea q,55.77,-2,50,GB,Berwick,55.770242,-2.005395,"Berwick-upon-Tweed, Northumberland, UK",0.339672095581226,700,0,2,1,1,0,1.11,0,0.01,0,0,0,0,1,1,0,0,0,0,1,0,0,0,uk
Beverley,UK,river north sea,53.85,-0.43,10,GB,Beverley,53.841963,-0.435093,"Beverley, Beverley, East Riding of Yorkshire HU17, UK",0.954796174049794,700,1,2,2,1,0,1.11,0,0.01,0,0,0,0,0,0,0,0,0,0,1,0,0,0,uk
Bilston,UK,land north sea,52.57,-2.07,136,GB,Bilston,52.565595,-2.074088,"Bilston, West Midlands, UK",0.562864167020803,700,0,2,0.3,0,0,1.11,0,0.01,0,0,0,0,0,0,1,0,0,0,1,0,0,0,uk
Birmingham,UK,land north sea,52.48500061,-1.860000014,114,GB,Birmingham,52.486243,-1.890401,"Birmingham, Birmingham, West Midlands, UK",2.06982145566666,700,0,2,0.3,0,0,1.11,0,0.01,0,0,0,0,0,0,1,0,0,0,1,0,0,0,uk
Blackburn,UK,land north sea,53.74300003,-2.477999926,150,GB,Blackburn,53.748575,-2.487529,"Blackburn, Blackburn with Darwen, UK",0.883063001258254,700,0,2,0.3,0,0,1.11,0,0.01,0,0,0,0,0,0,1,0,0,0,1,0,0,0,uk
Bolton,UK,land north sea,53.5719986,-2.430000067,76,GB,Bolton,53.5768647,-2.4282192,"Bolton, Bolton, UK",0.553973226599561,700,0,2,0.3,0,0,1.11,0,0.01,0,0,0,0,0,0,1,0,0,0,1,0,0,0,uk
Boston,UK,north sea q,52.98,-0.02,9,GB,Boston,52.97894,-0.026577,"Boston, Boston, Lincolnshire PE21, UK",0.457229464692062,700,0,2,1,1,0,1.11,0,0.01,0,0,0,0,1,1,0,0,0,0,1,0,0,0,uk
Bradford,UK,land north sea,53.7879982,-1.75,150,GB,Bradford,53.795984,-1.759398,"Bradford, Bradford, West Yorkshire, UK",1.08290960184643,700,0,2,0.3,0,0,1.11,0,0.01,0,0,0,0,0,0,1,0,0,0,1,0,0,0,uk
Brighton,UK,north sea,50.83,-0.17,5,GB,Brighton,50.82253,-0.137163,"Brighton, The City of Brighton and Hove, UK",2.45819503157525,700,0,2,1,0,0,1.11,0,0.01,0,0,0,0,1,0,0,0,0,0,1,0,0,0,uk
Bristol,UK,river north sea,51.47700119,-2.569000006,68,GB,Bristol,51.454513,-2.58791,"Bristol, City of Bristol, UK",2.82465457997479,700,0,2,2,1,0,1.11,0,0.01,0,0,0,0,0,0,0,0,0,0,1,0,0,0,uk
Bromsgrove,UK,land north sea,52.33,-2.05,90,GB,Bromsgrove,52.335589,-2.061906,"Bromsgrove, Bromsgrove, Worcestershire, UK",1.02224541399961,700,0,2,0.3,0,0,1.11,0,0.01,0,0,0,0,0,0,1,0,0,0,1,0,0,0,uk
Burnley,UK,river north sea,53.8,-2.23,140,GB,Burnley,53.7892877,-2.2405035,"Burnley, Burnley, Lancashire, UK",1.3780416710315,700,0,2,2,1,0,1.11,0,0.01,0,0,0,0,0,0,0,0,0,0,1,0,0,0,uk
Burslem,UK,land north sea,53.03,-2.2,50,GB,Burslem,53.045665,-2.196734,"Burslem, Stoke-on-Trent, Stoke-on-Trent, Stoke-on-Trent ST6, UK",1.75598761841789,700,0,2,0.3,0,0,1.11,0,0.01,0,0,0,0,0,0,1,0,0,0,1,0,0,0,uk
Bury,UK,land north sea,53.6,-2.28,52,GB,Bury,53.5933498,-2.2966054,"Bury, UK",1.3250947929681,700,0,2,0.3,0,0,1.11,0,0.01,0,0,0,0,0,0,1,0,0,0,1,0,0,0,uk
Bury-st-Edmunds,UK,river north sea,52.25,0.72,52,GB,Bury-st-Edmunds,52.2429228,0.7104932,"Bury St Edmunds, Bury Saint Edmunds, Suffolk, UK",1.02028689967781,700,0,2,2,1,0,1.11,0,0.01,0,0,0,0,0,0,0,0,0,0,1,0,0,0,uk
Cambridge,UK,river north sea,52.20500183,0.143999994,35,GB,Cambridge,52.205337,0.121817,"Cambridge, Cambridge, UK",1.51696264484461,700,1,2,2,1,0,1.11,0,0.01,0,0,0,0,0,0,0,0,0,0,1,0,0,0,uk
Canterbury,UK,river north sea,51.28,1.08,15,GB,Canterbury,51.280233,1.0789089,"Canterbury, Canterbury, Kent, UK",0.0804171060097883,700,1,2,2,1,0,1.11,0,0.01,0,0,1,0,0,0,0,0,0,0,1,0,0,0,uk
Cardiff,UK,north sea q,51.29,-3.11,17,GB,Cardiff,51.481581,-3.17909,"Cardiff, Cardiff, UK",21.836970213797,700,1,2,1,1,0,1.11,0,0.01,0,0,0,0,1,1,0,0,0,0,1,0,0,0,uk
Carlisle,UK,river north sea,54.9,-2.92,30,GB,Carlisle,54.892473,-2.932931,"Carlisle, Carlisle, Cumbria, UK",1.17882859684984,700,1,2,2,1,0,1.11,0,0.01,0,0,0,0,0,0,0,0,0,0,1,0,0,0,uk
Chatham,UK,north sea q,51.36100006,0.535000026,61,GB,Chatham,51.380952,0.52213,"Chatham, Medway, UK",2.39252722100597,700,0,2,1,1,0,1.11,0,0.01,0,0,0,0,1,1,0,0,0,0,1,0,0,0,uk
Chelmsford,UK,river north sea,51.74,0.48,33,GB,Chelmsford,51.7355868,0.4685497,"Chelmsford, Chelmsford, Essex, UK",0.93082003974493,700,0,2,2,1,0,1.11,0,0.01,0,0,0,0,0,0,0,0,0,0,1,0,0,0,uk
Cheltenham,UK,land north sea,51.9,-2.07,62,GB,Cheltenham,51.8993855,-2.0782533,"Cheltenham, Cheltenham, Gloucestershire, UK",0.572179145679568,700,0,2,0.3,0,0,1.11,0,0.01,0,0,0,0,0,0,1,0,0,0,1,0,0,0,uk
Chester,UK,river north sea,53.19200134,-2.891000032,17,GB,Chester,53.193392,-2.893075,"Chester, Chester, Cheshire West and Chester, UK",0.207744908945555,700,2,2,2,1,0,1.11,0,0.01,0,0,0,0,0,0,0,0,0,0,1,0,0,0,uk
Chesterfield,UK,land north sea,53.25,-1.42,89,GB,Chesterfield,53.235048,-1.421629,"Chesterfield, Chesterfield, Derbyshire, UK",1.6665868909319,700,0,2,0.3,0,0,1.11,0,0.01,0,0,0,0,0,0,1,0,0,0,1,0,0,0,uk
Chichester,UK,land north sea,50.83,-0.8,16,GB,Chichester,50.83761,-0.774936,"Chichester, Chichester, West Sussex, UK",1.95792268671307,700,1,2,0.3,0,0,1.11,0,0.01,0,0,0,0,0,0,1,0,0,0,1,0,0,0,uk
Colchester,UK,river north sea,51.89199829,0.899999976,5,GB,Colchester,51.895927,0.891874,"Colchester, Colchester, Essex, UK",0.709760044538607,700,1,2,2,1,0,1.11,0,0.01,0,0,0,0,0,0,0,0,0,0,1,0,0,0,uk
Coventry,UK,land north sea,52.40299988,-1.508000016,76,GB,Coventry,52.406822,-1.519693,"Coventry, Coventry, West Midlands, UK",0.902181791747519,700,0,2,0.3,0,0,1.11,0,0.01,0,0,0,0,0,0,1,0,0,0,1,0,0,0,uk
Crawley,UK,land north sea,51.12,-0.18,84,GB,Crawley,51.1091401,-0.1872275,"Crawley, West Sussex, UK",1.30916222617829,700,0,2,0.3,0,0,1.11,0,0.01,0,0,0,0,0,0,1,0,0,0,1,0,0,0,uk
Croydon,UK,land north sea,51.38,-0.1,80,GB,Croydon,51.376165,-0.098234,"Croydon, Greater London, UK",0.443764490393344,700,0,2,0.3,0,0,1.11,0,0.01,0,0,0,0,0,0,1,0,0,0,1,0,0,0,uk
Darlington,UK,land north sea,54.52,-1.57,55,GB,Darlington,54.52361,-1.559458,"Darlington, Darlington, Darlington, UK",0.792006149645956,700,0,2,0.3,0,0,1.11,0,0.01,0,0,0,0,0,0,1,0,0,0,1,0,0,0,uk
Deal,UK,north sea,51.23,1.4,5,GB,Deal,51.222491,1.401661,"Deal, Deal, Kent CT14, UK",0.842878094889699,700,0,2,1,0,0,1.11,0,0.01,0,0,0,0,1,0,0,0,0,0,1,0,0,0,uk
Derby,UK,river north sea,52.91500092,-1.472000003,62,GB,Derby,52.9225301,-1.4746186,"Derby, Derby, Derby, UK",0.855702442180128,700,0,2,2,1,0,1.11,0,0.01,0,0,0,0,0,0,0,0,0,0,1,0,0,0,uk
Doncaster,UK,river north sea,53.53,-1.12,30,GB,Doncaster,53.52282,-1.128462,"Doncaster, Doncaster, South Yorkshire, UK",0.976086702327786,700,1,2,2,1,0,1.11,0,0.01,0,0,0,0,0,0,0,0,0,0,1,0,0,0,uk
Dover,UK,north sea,51.125,1.309000015,32,GB,Dover,51.1278758,1.3134027,"Dover, Kent, UK",0.444096648891792,700,1,2,1,0,0,1.11,0,0.01,0,0,0,0,1,0,0,0,0,0,1,0,0,0,uk
Dudley,UK,land north sea,52.51200104,-2.095999956,155,GB,Dudley,52.512255,-2.081112,"Dudley, West Midlands, UK",1.01115765284811,700,0,2,0.3,0,0,1.11,0,0.01,0,0,0,0,0,0,1,0,0,0,1,0,0,0,uk
Dundee,UK,north sea,56.47999954,-3.030999899,104,GB,Dundee,56.462018,-2.970721,"Dundee, Dundee City, UK",4.21980838137094,700,0,2,1,0,0,1.11,0,0.01,0,0,0,0,1,0,0,0,0,0,1,0,0,0,uk
Durham,UK,river north sea,54.78,-1.57,52,GB,Durham,54.77525,-1.584852,"Durham, County Durham, UK",1.09207249199053,700,0,2,2,1,0,1.11,0,0.01,0,0,0,0,0,0,0,0,0,0,1,0,0,0,uk
Edinburgh,UK,north sea,55.94900131,-3.161000013,17,GB,Edinburgh,55.953252,-3.188267,"Edinburgh, Edinburgh, UK",1.76786184641698,700,0,2,1,0,0,1.11,0,0.01,0,0,0,0,1,0,0,0,0,0,1,0,0,0,uk
Ellesmere,UK,land north sea,52.9,-2.9,26,GB,Ellesmere,52.906718,-2.900338,"Ellesmere, Ellesmere, Shropshire SY12, UK",0.747505097164155,700,0,2,0.3,0,0,1.11,0,0.01,0,0,0,0,0,0,1,0,0,0,1,0,0,0,uk
Ely,UK,river north sea,52.4,0.27,5,GB,Ely,52.399539,0.262363,"Ely, Ely, Cambridgeshire, UK",0.52232938849381,700,1,2,2,1,0,1.11,0,0.01,0,0,0,0,0,0,0,0,0,0,1,0,0,0,uk
Exeter,UK,river north sea,50.72200012,-3.523000002,45,GB,Exeter,50.718412,-3.533899,"Exeter, Exeter, Devon, UK",0.866896321750443,700,1,2,2,1,0,1.11,0,0.01,0,0,0,0,0,0,0,0,0,0,1,0,0,0,uk
Frome,UK,land north sea,51.23,-2.33,80,GB,Frome,51.230751,-2.320096,"Frome, Frome, Somerset BA11, UK",0.696807939048951,700,1,2,0.3,0,0,1.11,0,0.01,0,0,0,0,0,0,1,0,0,0,1,0,0,0,uk
Gateshead,UK,river north sea,54.97,-1.62,66,GB,Gateshead,54.95268,-1.603411,"Gateshead, Gateshead, Tyne and Wear, UK",2.20061462723503,700,1,2,2,1,0,1.11,0,0.01,0,0,0,0,0,0,0,0,0,0,1,0,0,0,uk
Gillingham,UK,north sea q,51.38,0.55,70,GB,Gillingham,51.386322,0.551438,"Gillingham, Medway, UK",0.709997778514588,700,0,2,1,1,0,1.11,0,0.01,0,0,0,0,1,1,0,0,0,0,1,0,0,0,uk
Glasgow,UK,river north sea,55.86199951,-4.244999886,70,GB,Glasgow,55.864237,-4.251806,"Glasgow, Glasgow, Glasgow City, UK",0.493558707985472,700,0,2,2,1,0,1.11,0,0.01,0,0,0,0,0,0,0,0,0,0,1,0,0,0,uk
Gloucester,UK,river north sea,51.88,-2.33,24,GB,Gloucester,51.8642449,-2.238156,"Gloucester, Gloucester, UK",6.5637112084838,700,1,2,2,1,0,1.11,0,0.01,0,0,0,0,0,0,0,0,0,0,1,0,0,0,uk
Great Yarmouth,UK,north sea q,52.60599899,1.730000019,1,GB,Great Yarmouth,52.598233,1.728047,"Great Yarmouth, Great Yarmouth, Norfolk, UK",0.873740119505993,700,0,2,1,1,0,1.11,0,0.01,0,0,0,0,1,1,0,0,0,0,1,0,0,0,uk
Halifax,UK,land north sea,53.72600174,-1.855999947,167,GB,Halifax,53.72702,-1.85754,"Halifax, West Yorkshire, UK",0.152191074518529,700,0,2,0.3,0,0,1.11,0,0.01,0,0,0,0,0,0,1,0,0,0,1,0,0,0,uk
Hamilton,UK,river north sea,55.78,-4.05,80,GB,Hamilton,55.777633,-4.053679,"Hamilton, Hamilton, South Lanarkshire ML3, UK",0.350244202542725,700,0,2,2,1,0,1.11,0,0.01,0,0,0,0,0,0,0,0,0,0,1,0,0,0,uk
Hereford,UK,river north sea,52.07,-2.72,84,GB,Hereford,52.056398,-2.715974,"Hereford, Hereford, UK",1.53752298357638,700,1,2,2,1,0,1.11,0,0.01,0,1,0,0,0,0,0,0,0,0,1,0,0,0,uk
Huddersfield,UK,river north sea,53.64500046,-1.781000018,84,GB,Huddersfield,53.645792,-1.785035,"Huddersfield, Huddersfield, West Yorkshire, UK",0.280990148958545,700,0,2,2,1,0,1.11,0,0.01,0,0,0,0,0,0,0,0,0,0,1,0,0,0,uk
Hull (Kingston upon Hull),UK,north sea q,53.75,-0.338999987,1,GB,Hull ,53.7456709,-0.3367413,"Hull, Hull, UK",0.504078472189369,700,0,2,1,1,0,1.11,0,0.01,0,0,0,0,1,1,0,0,0,0,1,0,0,0,uk
Inverness,UK,north sea q,57.47999954,-4.227000237,9,GB,Inverness,57.477773,-4.224721,"Inverness, Inverness, Highland, UK",0.283060684153555,700,0,2,1,1,0,1.11,0,0.01,0,0,0,0,1,1,0,0,0,0,1,0,0,0,uk
Ipswich,UK,river north sea,52.05599976,1.157999992,12,GB,Ipswich,52.056736,1.14822,"Ipswich, Suffolk, UK",0.67580170332188,700,1,2,2,1,0,1.11,0,0.01,0,0,0,0,0,0,0,0,0,0,1,0,0,0,uk
Kendal,UK,river north sea,54.33,-2.75,55,GB,Kendal,54.328006,-2.74629,"Kendal, Kendal, Cumbria LA9, UK",0.327817281905318,700,0,2,2,1,0,1.11,0,0.01,0,0,0,0,0,0,0,0,0,0,1,0,0,0,uk
Kidderminster,UK,land north sea,52.38,-2.23,37,GB,Kidderminster,52.388596,-2.2496839,"Kidderminster, Worcestershire, UK",1.64621859358452,700,0,2,0.3,0,0,1.11,0,0.01,0,0,0,0,0,0,1,0,0,0,1,0,0,0,uk
King's Lynn,UK,north sea,52.75799942,0.393999994,3,GB,King's Lynn,52.7516798,0.4022963,"King's Lynn, King's Lynn, Norfolk PE30, UK",0.898735901376474,700,0,2,1,0,0,1.11,0,0.01,0,0,0,0,1,0,0,0,0,0,1,0,0,0,uk
Kirkcaldy,UK,north sea,56.12,-3.17,5,GB,Kirkcaldy,56.1168249,-3.158137,"Kirkcaldy, Kirkcaldy, Fife, UK",0.818135759975833,700,0,2,1,0,0,1.11,0,0.01,0,0,0,0,1,0,0,0,0,0,1,0,0,0,uk
Lancaster,UK,river north sea,54.05,-2.8,19,GB,Lancaster,54.046575,-2.8007399,"Lancaster, Lancashire, UK",0.384075210357481,700,1,2,2,1,0,1.11,0,0.01,0,0,0,0,0,0,0,0,0,0,1,0,0,0,uk
Leeds,UK,river north sea,53.80599976,-1.536999941,69,GB,Leeds,53.8007554,-1.5490774,"Leeds, West Yorkshire, UK",0.986648671461651,700,0,2,2,1,0,1.11,0,0.01,0,0,0,0,0,0,0,0,0,0,1,0,0,0,uk
Leicester,UK,river north sea,52.63499832,-1.13499999,76,GB,Leicester,52.6368778,-1.1397592,"Leicester, Leicester, Leicester, UK",0.384060003880452,700,1,2,2,1,0,1.11,0,0.01,0,1,0,0,0,0,0,0,0,0,1,0,0,0,uk
Lichfield,UK,land north sea,52.7,-1.8,99,GB,Lichfield,52.681602,-1.831672,"Lichfield, Lichfield, Staffordshire, UK",2.9618570456287,700,1,2,0.3,0,0,1.11,0,0.01,0,1,0,0,0,0,1,0,0,0,1,0,0,0,uk
Lincoln,UK,river north sea,53.23,-0.55,30,GB,Lincoln,53.230688,-0.540579,"Lincoln, Lincoln, UK",0.633763055499806,700,2,2,2,1,0,1.11,0,0.01,0,0,0,0,0,0,0,0,0,0,1,0,0,0,uk
Liverpool,UK,north sea,53.41600037,-2.940000057,13,GB,Liverpool,53.4083714,-2.9915726,"Liverpool, Merseyside, UK",3.53278424422017,700,0,2,1,0,0,1.11,0,0.01,0,0,0,0,1,0,0,0,0,0,1,0,0,0,uk
London,UK,north sea q,51.51699829,-0.104999997,21,GB,London,51.5073509,-0.1277583,"London, UK",1.90964688568267,700,3,2,1,1,0,1.11,0,0.01,0,1,0,0,1,1,0,0,0,0,1,0,0,0,uk
Luton,UK,land north sea,51.9,-0.4,117,GB,Luton,51.8786707,-0.4200255,"Luton, Luton, Luton, UK",2.74332232332938,700,0,2,0.3,0,0,1.11,0,0.01,0,0,0,0,0,0,1,0,0,0,1,0,0,0,uk
Macclesfield,UK,land north sea,53.25799942,-2.127000093,154,GB,Macclesfield,53.258663,-2.119287,"Macclesfield, Macclesfield, Cheshire East, UK",0.520002344234041,700,0,2,0.3,0,0,1.11,0,0.01,0,0,0,0,0,0,1,0,0,0,1,0,0,0,uk
Maidstone,UK,river north sea,51.28,0.53,56,GB,Maidstone,51.270363,0.522699,"Maidstone, Maidstone, Kent, UK",1.18641469786141,700,0,2,2,1,0,1.11,0,0.01,0,0,0,0,0,0,0,0,0,0,1,0,0,0,uk
Manchester,UK,river north sea,53.48300171,-2.249000072,58,GB,Manchester,53.4807593,-2.2426305,"Manchester, Manchester, UK",0.490938079545956,700,1,2,2,1,0,1.11,0,0.01,0,0,0,0,0,0,0,0,0,0,1,0,0,0,uk
Mansfield,UK,land north sea,53.15,-1.18,110,GB,Mansfield,53.147195,-1.198674,"Mansfield, Nottinghamshire, UK",1.28776956269251,700,0,2,0.3,0,0,1.11,0,0.01,0,0,0,0,0,0,1,0,0,0,1,0,0,0,uk
Margate,UK,north sea,51.4,1.4,5,GB,Margate,51.389646,1.3868339,"Margate, Kent, UK",1.47138548475453,700,0,2,1,0,0,1.11,0,0.01,0,0,0,0,1,0,0,0,0,0,1,0,0,0,uk
Newcastle-under-Lyme,UK,land north sea,53.01,-2.23,140,GB,Newcastle-under-Lyme,53.013208,-2.2273002,"Newcastle-under-Lyme, Staffordshire, UK",0.400171857109921,700,0,2,0.3,0,0,1.11,0,0.01,0,0,0,0,0,0,1,0,0,0,1,0,0,0,uk
Newcastle-upon-Tyne,UK,river north sea,54.97399902,-1.601999998,19,GB,Newcastle-upon-Tyne,54.978252,-1.61778,"Newcastle upon Tyne, Newcastle upon Tyne, Tyne and Wear, UK",1.1157369438624,700,2,2,2,1,0,1.11,0,0.01,0,0,0,0,0,0,0,0,0,0,1,0,0,0,uk
Newport,UK,north sea q,52.78,-2.37,16,GB,Newport,52.7685559,-2.375587,"Newport, Newport, Telford and Wrekin TF10, UK",1.32742619578515,700,0,2,1,1,0,1.11,0,0.01,0,0,0,0,1,1,0,0,0,0,1,0,0,0,uk
North Shields,UK,north sea q,51.02,-1.43,42,GB,North Shields,55.010762,-1.449138,"North Shields, Tyne and Wear, UK",443.853656068337,700,0,2,1,1,0,1.11,0,0.01,0,0,0,0,1,1,0,0,0,0,1,0,0,0,uk
Northampton,UK,river north sea,52.23,-0.9,97,GB,Northampton,52.240477,-0.902656,"Northampton, Northampton, UK",1.17911645008277,700,0,2,2,1,0,1.11,0,0.01,0,0,0,0,0,0,0,0,0,0,1,0,0,0,uk
Norwich,UK,river north sea,52.62799835,1.302999973,9,GB,Norwich,52.6308859,1.297355,"Norwich, Norwich, Norfolk, UK",0.499217134440935,700,1,2,2,1,0,1.11,0,0.01,0,0,0,0,0,0,0,0,0,0,1,0,0,0,uk
Nottingham,UK,river north sea,52.9679985,-1.159000039,73,GB,Nottingham,52.9547832,-1.1581086,"Nottingham, Nottingham, UK",1.47100935139838,700,0,2,2,1,0,1.11,0,0.01,0,0,0,0,0,0,0,0,0,0,1,0,0,0,uk
Oldham,UK,land north sea,53.53699875,-2.112999916,196,GB,Oldham,53.5409298,-2.1113659,"Oldham, UK",0.45047599894815,700,0,2,0.3,0,0,1.11,0,0.01,0,0,0,0,0,0,1,0,0,0,1,0,0,0,uk
Oxford,UK,river north sea,51.75400162,-1.253999949,69,GB,Oxford,51.7520209,-1.2577263,"Oxford, Oxford, UK",0.338704933140942,700,0,2,2,1,0,1.11,0,0.01,0,0,0,0,0,0,0,0,0,0,1,0,0,0,uk
Paisley,UK,north sea q,55.8409996,-4.420000076,57,GB,Paisley,55.847258,-4.440114,"Paisley, Renfrewshire, UK",1.43966613124179,700,0,2,1,1,0,1.11,0,0.01,0,0,0,0,1,1,0,0,0,0,1,0,0,0,uk
Perth,UK,river north sea,56.39599991,-3.434000015,22,GB,Perth,56.394994,-3.430838,"Perth, Perth, Perth and Kinross, UK",0.225081878422821,700,0,2,2,1,0,1.11,0,0.01,0,0,0,0,0,0,0,0,0,0,1,0,0,0,uk
Peterborough (Medeshamstede),UK,river north sea,52.58,-0.25,12,GB,Peterborough ,52.5694985,-0.2405299,"Peterborough, Peterborough, UK",1.33271227617436,700,1,2,2,1,0,1.11,0,0.01,0,0,0,0,0,0,0,0,0,0,1,0,0,0,uk
Plymouth,UK,north sea,50.38800049,-4.145999908,48,GB,Plymouth,50.3754565,-4.1426565,"Plymouth, Plymouth, UK",1.4145414679546,700,0,2,1,0,0,1.11,0,0.01,0,0,0,0,1,0,0,0,0,0,1,0,0,0,uk
Poole,UK,north sea,50.72,-1.98,1,GB,Poole,50.71505,-1.987248,"Poole, Poole, UK",0.751551428725738,700,0,2,1,0,0,1.11,0,0.01,0,0,0,0,1,0,0,0,0,0,1,0,0,0,uk
Portsmouth,UK,north sea,50.80899811,-1.070000052,1,GB,Portsmouth,50.8197675,-1.0879769,"Portsmouth, Portsmouth, UK",1.74315015786822,700,0,2,1,0,0,1.11,0,0.01,0,0,0,0,1,0,0,0,0,0,1,0,0,0,uk
Preston,UK,river north sea,53.75999832,-2.704999924,29,GB,Preston,53.763201,-2.70309,"Preston, Preston, Lancashire, UK",0.377865639387701,700,0,2,2,1,0,1.11,0,0.01,0,0,0,0,0,0,0,0,0,0,1,0,0,0,uk
Reading,UK,river north sea,51.45500183,-0.971000016,47,GB,Reading,51.4542645,-0.9781303,"Reading, Reading, Reading, UK",0.502354960193181,700,0,2,2,1,0,1.11,0,0.01,0,0,0,0,0,0,0,0,0,0,1,0,0,0,uk
Rochdale,UK,land north sea,53.61800003,-2.15899992,130,GB,Rochdale,53.6097136,-2.1561,"Rochdale, UK",0.941492912140322,700,0,2,0.3,0,0,1.11,0,0.01,0,0,0,0,0,0,1,0,0,0,1,0,0,0,uk
Rochester,UK,river north sea,51.4,0.5,6,GB,Rochester,51.388,0.506721,"Rochester, Medway, UK",1.41383911974384,700,1,2,2,1,0,1.11,0,0.01,0,1,0,0,0,0,0,0,0,0,1,0,0,0,uk
Rotherham,UK,river north sea,53.43,-1.33,41,GB,Rotherham,53.4326035,-1.3635009,"Rotherham, Rotherham, South Yorkshire, UK",2.24542402706527,700,0,2,2,1,0,1.11,0,0.01,0,0,0,0,0,0,0,0,0,0,1,0,0,0,uk
Rowley Regis,UK,land north sea,52.48,-2.05,210,GB,Rowley Regis,52.488674,-2.046085,"Rowley Regis, West Midlands, UK",1.00061383481886,700,0,2,0.3,0,0,1.11,0,0.01,0,0,0,0,0,0,1,0,0,0,1,0,0,0,uk
Salford,UK,river north sea,53.48300171,-2.29399991,51,GB,Salford,53.4875235,-2.2901264,"Salford, UK",0.564875341641294,700,0,2,2,1,0,1.11,0,0.01,0,0,0,0,0,0,0,0,0,0,1,0,0,0,uk
Salisbury,UK,river north sea,51.07,-1.79,50,GB,Salisbury,51.068785,-1.794472,"Salisbury, Salisbury, Wiltshire, UK",0.341321320310775,700,0,2,2,1,0,1.11,0,0.01,0,0,0,0,0,0,0,0,0,0,1,0,0,0,uk
Scarborough,UK,north sea,54.28,-0.4,48,GB,Scarborough,54.283113,-0.399752,"Scarborough, North Yorkshire, UK",0.346689954423258,700,1,2,1,0,0,1.11,0,0.01,0,0,0,0,1,0,0,0,0,0,1,0,0,0,uk
Sedgley,UK,land north sea,52.54800034,-2.125,153,GB,Sedgley,52.5428691,-2.1217238,"Sedgley, Dudley, Dudley, West Midlands DY3, UK",0.612398260119609,700,0,2,0.3,0,0,1.11,0,0.01,0,0,0,0,0,0,1,0,0,0,1,0,0,0,uk
Sheffield,UK,river north sea,53.38299942,-1.465999961,73,GB,Sheffield,53.381129,-1.470085,"Sheffield, South Yorkshire, UK",0.342305782603016,700,0,2,2,1,0,1.11,0,0.01,0,0,0,0,0,0,0,0,0,0,1,0,0,0,uk
Shepton Mallet,UK,land north sea,51.2,-2.55,144,GB,Shepton Mallet,51.1909,-2.547886,"Shepton Mallet, Somerset, UK",1.02247019871587,700,0,2,0.3,0,0,1.11,0,0.01,0,0,0,0,0,0,1,0,0,0,1,0,0,0,uk
Shrewsbury,UK,river north sea,52.70700073,-2.747999907,58,GB,Shrewsbury,52.7073029,-2.7553268,"Shrewsbury, Shrewsbury, Shropshire, UK",0.496366423379405,700,0,2,2,1,0,1.11,0,0.01,0,0,0,0,0,0,0,0,0,0,1,0,0,0,uk
Slough,UK,river north sea,50.51,-0.59,33,GB,Slough,51.5105384,-0.5950406,"Slough, UK",111.236007564627,700,0,2,2,1,0,1.11,0,0.01,0,0,0,0,0,0,0,0,0,0,1,0,0,0,uk
South Shields,UK,river north sea,54.99200058,-1.42900002,1,GB,South Shields,54.999424,-1.427406,"South Shields, Tyne and Wear, UK",0.832227566802181,700,1,2,2,1,0,1.11,0,0.01,0,0,0,0,0,0,0,0,0,0,1,0,0,0,uk
St Albans,UK,river north sea,51.76,-0.34,98,GB,St Albans,51.752725,-0.339436,"St Albans, St Albans, Hertfordshire, UK",0.809860035199694,700,1,2,2,1,0,1.11,0,0.01,0,0,0,0,0,0,0,0,0,0,1,0,0,0,uk
St Andrews,UK,north sea,56.33800125,-2.785000086,1,GB,St Andrews,56.3397753,-2.7967214,"St Andrews, St Andrews, Fife KY16, UK",0.751315675186036,700,0,2,1,0,0,1.11,0,0.01,0,0,0,0,1,0,0,0,0,0,1,0,0,0,uk
St Peter Port,UK,north sea,49.45,-2.53,5,GB,St Peter Port,49.460563,-2.533856,"St. Peter Port GY1 4EW, Guernsey",1.20680820486983,700,0,2,1,0,0,1.11,0,0.01,0,0,0,0,1,0,0,0,0,0,1,0,0,0,uk
Stockport,UK,river north sea,53.4109993,-2.157999992,71,GB,Stockport,53.4106316,-2.1575332,"Stockport, UK",0.0513442285467091,700,0,2,2,1,0,1.11,0,0.01,0,0,0,0,0,0,0,0,0,0,1,0,0,0,uk
Stockton on Tees,UK,river north sea,54.57,-1.32,15,GB,Stockton on Tees,54.5704551,-1.3289821,"Stockton-on-Tees, Stockton-on-Tees, UK",0.583129271702286,700,0,2,2,1,0,1.11,0,0.01,0,0,0,0,0,0,0,0,0,0,1,0,0,0,uk
Sunderland,UK,north sea,54.9109993,-1.383999944,1,GB,Sunderland,54.906869,-1.383801,"Sunderland, Tyne and Wear, UK",0.459718454331871,700,0,2,1,0,0,1.11,0,0.01,0,0,0,0,1,0,0,0,0,0,1,0,0,0,uk
Sutton Coldfield,UK,land north sea,52.56,-1.82,119,GB,Sutton Coldfield,52.570385,-1.824042,"Sutton Coldfield, West Midlands, UK",1.18699383058518,700,0,2,0.3,0,0,1.11,0,0.01,0,0,0,0,0,0,1,0,0,0,1,0,0,0,uk
Swansea,UK,north sea q,51.63,-3.95,18,GB,Swansea,51.62144,-3.943646,"Swansea, Swansea, Swansea, UK",1.04856651630622,700,0,2,1,1,0,1.11,0,0.01,0,0,0,0,1,1,0,0,0,0,1,0,0,0,uk
Taunton,UK,river north sea,51.02,-3.1,47,GB,Taunton,51.015344,-3.106849,"Taunton, Taunton, Somerset, UK",0.7063428451409,700,1,2,2,1,0,1.11,0,0.01,0,0,0,0,0,0,0,0,0,0,1,0,0,0,uk
Tiverton,UK,river north sea,50.9,-3.49,139,GB,Tiverton,50.902049,-3.491207,"Tiverton, Tiverton, Devon EX16, UK",0.243103677953278,700,0,2,2,1,0,1.11,0,0.01,0,0,0,0,0,0,0,0,0,0,1,0,0,0,uk
Wakefield,UK,river north sea,53.68000031,-1.493000031,52,GB,Wakefield,53.683298,-1.505924,"Wakefield, West Yorkshire, UK",0.929399282261996,700,0,2,2,1,0,1.11,0,0.01,0,0,0,0,0,0,0,0,0,0,1,0,0,0,uk
Walsall,UK,land north sea,52.58399963,-1.978000045,143,GB,Walsall,52.586214,-1.982919,"Walsall, West Midlands, UK",0.414488070609965,700,0,2,0.3,0,0,1.11,0,0.01,0,0,0,0,0,0,1,0,0,0,1,0,0,0,uk
Warminster,UK,land north sea,51.21,-2.18,120,GB,Warminster,51.204629,-2.181078,"Warminster, Warminster, Wiltshire BA12, UK",0.601880968515593,700,0,2,0.3,0,0,1.11,0,0.01,0,0,0,0,0,0,1,0,0,0,1,0,0,0,uk
Warwick,UK,river north sea,52.28,-1.57,57,GB,Warwick,52.282316,-1.584927,"Warwick, Warwick, UK",1.05077028225329,700,0,2,2,1,0,1.11,0,0.01,0,0,0,0,0,0,0,0,0,0,1,0,0,0,uk
Wellington (Telford),UK,land north sea,52.72,-2.52,101,GB,Wellington ,52.703034,-2.518597,"Wellington, Telford, Telford and Wrekin, UK",1.88922529758375,700,0,2,0.3,0,0,1.11,0,0.01,0,0,0,0,0,0,1,0,0,0,1,0,0,0,uk
West Bromwich,UK,land north sea,52.52,-1.93,165,GB,West Bromwich,52.517664,-1.995159,"West Bromwich, West Midlands, UK",4.43068037924494,700,0,2,0.3,0,0,1.11,0,0.01,0,0,0,0,0,0,1,0,0,0,1,0,0,0,uk
West Ham,UK,land north sea,51.52,0.02,25,GB,"West Ham, London",51.538265,0.014525,"West Ham, London E15, UK",2.06606841257307,700,0,2,0.3,0,0,1.11,0,0.01,0,0,0,0,0,0,1,0,0,0,1,0,0,0,uk
Whitby,UK,north sea,54.48,-0.62,5,GB,Whitby,54.486335,-0.613347,"Whitby, North Yorkshire, UK",0.826228414509596,700,1,2,1,0,0,1.11,0,0.01,0,0,0,0,1,0,0,0,0,0,1,0,0,0,uk
Whitehaven,UK,north sea,54.55,-2.63,2,GB,Whitehaven,54.549699,-3.589233,"Whitehaven, Whitehaven, Cumbria CA28, UK",62.0699002136994,700,0,2,1,0,0,1.11,0,0.01,0,0,0,0,1,0,0,0,0,0,1,0,0,0,uk
Wigan,UK,land north sea,53.54399872,-2.625999928,66,GB,Wigan,53.5450645,-2.6325074,"Wigan, Wigan, UK",0.447368394554017,700,0,2,0.3,0,0,1.11,0,0.01,0,0,0,0,0,0,1,0,0,0,1,0,0,0,uk
Winchester,UK,river north sea,51.06200027,-1.307999969,66,GB,Winchester,51.059771,-1.310142,"Winchester, Winchester, Hampshire, UK",0.28978691964663,700,2,2,2,1,0,1.11,0,0.01,0,1,0,0,0,0,0,0,0,0,1,0,0,0,uk
Wolverhampton,UK,land north sea,52.58399963,-2.125,152,GB,Wolverhampton,52.586973,-2.12882,"Wolverhampton, West Midlands, UK",0.41997389344857,700,0,2,0.3,0,0,1.11,0,0.01,0,0,0,0,0,0,1,0,0,0,1,0,0,0,uk
Woolwich,UK,north sea q,51.47999954,0.079999998,57,GB,Woolwich,51.4894752,0.0675883,"Woolwich, London, UK",1.36136278808179,700,0,2,1,1,0,1.11,0,0.01,0,0,0,0,1,1,0,0,0,0,1,0,0,0,uk
Worcester,UK,river north sea,52.1969986,-2.211999893,71,GB,Worcester,52.193636,-2.221575,"Worcester, Worcester, UK",0.753985495905252,700,1,2,2,1,0,1.11,0,0.01,0,1,0,0,0,0,0,0,0,0,1,0,0,0,uk
Workington,UK,north sea,54.65,-3.58,2,GB,Workington,54.643569,-3.542752,"Workington, Workington, Cumbria CA14, UK",2.50872805966958,700,1,2,1,0,0,1.11,0,0.01,0,0,0,0,1,0,0,0,0,0,1,0,0,0,uk
York,UK,river north sea,53.95600128,-1.093000054,12,GB,York,53.9599651,-1.0872979,"York, York, York, UK",0.578380676140348,700,2,2,2,1,0,1.11,0,0.01,0,0,1,0,0,0,0,0,0,0,1,0,0,0,uk
Alkmaar,Netherlands,river north sea,52.63299942,4.75,3,NL,Alkmaar,52.6323813,4.7533754,"Alkmaar, Netherlands",0.238647546266483,700,0,2,2,1,0,1.11,0,0,0,0,0,0,0,0,0,0,0,0,1,0,0,0,nl
Amersfoort,Netherlands,river north sea,52.15,5.4,3,NL,Amersfoort,52.1561113,5.3878266,"Amersfoort, Netherlands",1.07518929193067,700,0,2,2,1,0,1.11,0,0,0,0,0,0,0,0,0,0,0,0,1,0,0,0,nl
Amsterdam,Netherlands,north sea,52.34999847,4.916999817,2,NL,Amsterdam,52.3702157,4.8951679,"Amsterdam, Netherlands",2.69569586505257,700,0,2,1,0,0,1.11,0,0,0,0,0,0,1,0,0,0,0,0,1,0,0,0,nl
Apeldoorn,Netherlands,land north sea,52.22,5.97,16,NL,Apeldoorn,52.211157,5.9699231,"Apeldoorn, Netherlands",0.983376371244574,700,0,2,0.3,0,0,1.11,0,0,0,0,0,0,0,0,1,0,0,0,1,0,0,0,nl
Arnhem,Netherlands,river north sea,51.98300171,5.916999817,13,NL,Arnhem,51.9851034,5.8987296,"Arnhem, Netherlands",1.2767748414782,700,0,2,2,1,0,1.11,0,0,0,0,0,0,0,0,0,0,0,0,1,0,0,0,nl
Bergen op Zoom,Netherlands,north sea,51.5,4.28,10,NL,Bergen op Zoom,51.4945758,4.2871622,"Bergen op Zoom, Netherlands",0.781733225825696,700,0,2,1,0,0,1.11,0,0,0,0,0,0,1,0,0,0,0,0,1,0,0,0,nl
Breda,Netherlands,river north sea,51.58,4.77,3,NL,Breda,51.5719149,4.768323,"Breda, Netherlands",0.90645375179337,700,0,2,2,1,0,1.11,0,0,0,0,0,0,0,0,0,0,0,0,1,0,0,0,nl
Delft,Netherlands,river north sea,52,4.367000103,2,NL,Delft,52.0115769,4.3570677,"Delft, Netherlands",1.45684260379576,700,0,2,2,1,0,1.11,0,0,0,0,0,0,0,0,0,0,0,0,1,0,0,0,nl
Deventer,Netherlands,river north sea,52.25,6.199999809,7,NL,Deventer,52.2660751,6.1552165,"Deventer, Netherlands",3.54207300356437,700,0,2,2,1,0,1.11,0,0,0,0,0,0,0,0,0,0,0,0,1,0,0,0,nl
Dordrecht,Netherlands,north sea q,51.79999924,4.666999817,1,NL,Dordrecht,51.8132979,4.6900929,"Dordrecht, Netherlands",2.17339316165711,700,0,2,1,1,0,1.11,0,0,0,0,0,0,1,1,0,0,0,0,1,0,0,0,nl
Edam,Netherlands,north sea,52.55,5.03,1,NL,Edam,52.5126367,5.0491819,"1135 Edam, Netherlands",4.35427336450537,700,0,2,1,0,0,1.11,0,0,0,0,0,0,1,0,0,0,0,0,1,0,0,0,nl
Eindhoven,Netherlands,river north sea,51.43,5.47,17,NL,Eindhoven,51.441642,5.4697225,"Eindhoven, Netherlands",1.29456039144451,700,0,2,2,1,0,1.11,0,0,0,0,0,0,0,0,0,0,0,0,1,0,0,0,nl
Enkhuizen,Netherlands,north sea,52.71699905,5.282999992,1,NL,Enkhuizen,52.7153849,5.2846831,"Enkhuizen, Netherlands",0.212513523369582,700,0,2,1,0,0,1.11,0,0,0,0,0,0,1,0,0,0,0,0,1,0,0,0,nl
Enschede,Netherlands,land north sea,52.22,6.88,42,NL,Enschede,52.2215372,6.8936619,"Enschede, Netherlands",0.949166245633457,700,0,2,0.3,0,0,1.11,0,0,0,0,0,0,0,0,1,0,0,0,1,0,0,0,nl
Gorinchem,Netherlands,river north sea,51.83,4.97,2,NL,Gorinchem,51.8372247,4.9758292,"Gorinchem, Netherlands",0.898229713200878,700,0,2,2,1,0,1.11,0,0,0,0,0,0,0,0,0,0,0,0,1,0,0,0,nl
Gouda,Netherlands,river north sea,52.01699829,4.699999809,-2,NL,Gouda,52.0115205,4.7104633,"Gouda, Netherlands",0.941857267511688,700,0,2,2,1,0,1.11,0,0,0,0,0,0,0,0,0,0,0,0,1,0,0,0,nl
Groningen,Netherlands,river north sea,53.21699905,6.550000191,1,NL,Groningen,53.2193835,6.5665018,"Groningen, Netherlands",1.13373110420355,700,0,2,2,1,0,1.11,0,0,0,0,0,0,0,0,0,0,0,0,1,0,0,0,nl
Haarlem,Netherlands,river north sea,52.36700058,4.650000095,-1,NL,Haarlem,52.3873878,4.6462194,"Haarlem, Netherlands",2.28175111544897,700,0,2,2,1,0,1.11,0,0,0,0,0,0,0,0,0,0,0,0,1,0,0,0,nl
Harlingen,Netherlands,north sea,53.17,5.43,2,NL,Harlingen,53.1746381,5.4251517,"Harlingen, Netherlands",0.60928127403933,700,0,2,1,0,0,1.11,0,0,0,0,0,0,1,0,0,0,0,0,1,0,0,0,nl
Hoorn,Netherlands,north sea,52.65000153,5.066999912,-1,NL,Hoorn,52.6423654,5.0602124,"Hoorn, Netherlands",0.965527815584908,700,0,2,1,0,0,1.11,0,0,0,0,0,0,1,0,0,0,0,0,1,0,0,0,nl
Kampen,Netherlands,north sea q,52.54999924,5.916999817,1,NL,Kampen,52.5579645,5.9144617,"Kampen, Netherlands",0.902388161615715,700,0,2,1,1,0,1.11,0,0,0,0,0,0,1,1,0,0,0,0,1,0,0,0,nl
Leeuwarden,Netherlands,river north sea,53.20000076,5.782999992,1,NL,Leeuwarden,53.2012334,5.7999133,"Leeuwarden, Netherlands",1.13852313761045,700,0,2,2,1,0,1.11,0,0,0,0,0,0,0,0,0,0,0,0,1,0,0,0,nl
Leiden,Netherlands,river north sea,52.15000153,4.5,-2,NL,Leiden,52.1601144,4.4970097,"Leiden, Netherlands",1.14303203756503,700,0,2,2,1,0,1.11,0,0,0,0,0,0,0,0,0,0,0,0,1,0,0,0,nl
Maassluis,Netherlands,north sea q,51.93,4.23,4,NL,Maassluis,51.9226067,4.2545656,"Maassluis, Netherlands",1.87924126499827,700,0,2,1,1,0,1.11,0,0,0,0,0,0,1,1,0,0,0,0,1,0,0,0,nl
Maastricht,Netherlands,river north sea,50.84999847,5.683000088,54,NL,Maastricht,50.8513682,5.6909725,"Maastricht, Netherlands",0.581721456405508,700,1,2,2,1,0,1.11,0,0,0,0,0,0,0,0,0,0,0,0,1,0,0,0,nl
Middelburg,Netherlands,north sea q,51.5,3.617000103,1,NL,Middelburg,51.4987962,3.610998,"Middelburg, Netherlands",0.437757255630411,700,0,2,1,1,0,1.11,0,0,0,0,0,0,1,1,0,0,0,0,1,0,0,0,nl
Nijkerk,Netherlands,land north sea,52.22,5.48,1,NL,Nijkerk,52.2224835,5.4835625,"Nijkerk, Netherlands",0.368159531671787,700,0,2,0.3,0,0,1.11,0,0,0,0,0,0,0,0,1,0,0,0,1,0,0,0,nl
Nijmegen,Netherlands,river north sea,51.83300018,5.867000103,46,NL,Nijmegen,51.8125626,5.8372264,"Nijmegen, Netherlands",3.0624481648946,700,1,2,2,1,0,1.11,0,0,0,0,0,0,0,0,0,0,0,0,1,0,0,0,nl
Roermond,Netherlands,river north sea,51.2,6,22,NL,Roermond,51.1913202,5.9877715,"Roermond, Netherlands",1.28915807500617,700,0,2,2,1,0,1.11,0,0,0,0,0,0,0,0,0,0,0,0,1,0,0,0,nl
Roosendaal,Netherlands,land north sea,51.54,4.45,3,NL,Roosendaal,51.535849,4.4653213,"Roosendaal, Netherlands",1.15890227050296,700,0,2,0.3,0,0,1.11,0,0,0,0,0,0,0,0,1,0,0,0,1,0,0,0,nl
Rotterdam,Netherlands,north sea q,51.91699982,4.5,-4,NL,Rotterdam,51.9244201,4.4777325,"Rotterdam, Netherlands",1.7400474350751,700,0,2,1,1,0,1.11,0,0,0,0,0,0,1,1,0,0,0,0,1,0,0,0,nl
Schiedam,Netherlands,north sea q,51.92,4.4,-1,NL,Schiedam,51.9169599,4.3988186,"Schiedam, Netherlands",0.34768116162158,700,0,2,1,1,0,1.11,0,0,0,0,0,0,1,1,0,0,0,0,1,0,0,0,nl
Sneek,Netherlands,river north sea,53.03,5.67,6,NL,Sneek,53.0337476,5.6556473,"Sneek, Netherlands",1.04922873937039,700,0,2,2,1,0,1.11,0,0,0,0,0,0,0,0,0,0,0,0,1,0,0,0,nl
Tilburg,Netherlands,land north sea,51.55,5.08,14,NL,Tilburg,51.560596,5.0919143,"Tilburg, Netherlands",1.43904282613335,700,0,2,0.3,0,0,1.11,0,0,0,0,0,0,0,0,1,0,0,0,1,0,0,0,nl
Utrecht,Netherlands,river north sea,52.08300018,5.132999897,1,NL,Utrecht,52.0907374,5.1214201,"Utrecht, Netherlands",1.17057961822944,700,1,2,2,1,0,1.11,0,0,0,1,0,0,0,0,0,0,0,0,1,0,0,0,nl
Venlo,Netherlands,river north sea,51.37,6.17,21,NL,Venlo,51.3703748,6.1724031,"Venlo, Netherlands",0.172456016970788,700,0,2,2,1,0,1.11,0,0,0,0,0,0,0,0,0,0,0,0,1,0,0,0,nl
Vlaardingen,Netherlands,north sea q,51.9,4.33,1,NL,Vlaardingen,51.9120668,4.3494366,"Vlaardingen, Netherlands",1.89464301572852,700,0,2,1,1,0,1.11,0,0,0,0,0,0,1,1,0,0,0,0,1,0,0,0,nl
Weert,Netherlands,land north sea,51.25,5.72,35,NL,Weert,51.2439415,5.7142222,"Weert, Netherlands",0.785160508054259,700,0,2,0.3,0,0,1.11,0,0,0,0,0,0,0,0,1,0,0,0,1,0,0,0,nl
Winterswijk,Netherlands,land north sea,51.97,6.72,37,NL,Winterswijk,51.9713139,6.720509,"Winterswijk, Netherlands",0.150230721681888,700,0,2,0.3,0,0,1.11,0,0,0,0,0,0,0,0,1,0,0,0,1,0,0,0,nl
Zaandam,Netherlands,river north sea,52.45000076,4.833000183,-2,NL,Zaandam,52.4420399,4.8291992,"Zaandam, Netherlands",0.922257626592339,700,0,2,2,1,0,1.11,0,0,0,0,0,0,0,0,0,0,0,0,1,0,0,0,nl
Zierikzee,Netherlands,north sea,51.65,3.92,7,NL,Zierikzee,51.6501218,3.9184977,"Zierikzee, Netherlands",0.104855489718547,700,0,2,1,0,0,1.11,0,0,0,0,0,0,1,0,0,0,0,0,1,0,0,0,nl
Zoetermeer,Netherlands,land north sea,52.05,4.48,-3,NL,Zoetermeer,52.060669,4.494025,"Zoetermeer, Netherlands",1.52740661664859,700,0,2,0.3,0,0,1.11,0,0,0,0,0,0,0,0,1,0,0,0,1,0,0,0,nl
